name,Lat,Long,Ladentyp,GMDNAME
Aachtal,47.5482982,9.2732473,m,Sommeri
Aadorf,47.4900907,8.8994059,m,Aadorf
Aarau,47.3919981,8.0515956,mta,Aarau
Aarau,47.3917082,8.0460946,mm,Aarau
Aarau,47.3919221,8.0528306,m,Aarau
Abtwil ,47.4174113,9.316473,mm,Gaiserwald
Adligenswil,47.0715393,8.3619211,dmp,Adligenswil
Adliswil,47.3112824,8.5252672,mm,Adliswil
Aesch,47.4694175,7.5960676,mm,Aesch (BL)
Affoltern am Albis,47.2780275,8.453809,mm,Affoltern am Albis
Affoltern am Albis,47.2750156,8.4457167,soca,Affoltern am Albis
Agno,45.9983117,8.9056394,mgls,Agno
Aigle ,46.31611,6.9381022,mmm,Yvorne
Aigle ,46.3159644,6.964881,m,Aigle
Allschwil ,47.5485219,7.5463149,mgls,Allschwil
Allschwil ,47.547382,7.5536404,mmm,Allschwil
Allschwil ,47.5462124,7.5536691,shell,Allschwil
Allschwil ,47.5530962,7.5499775,m,Allschwil
Allschwil,47.5578704,7.5603772,dmp,Binningen
Glatt,47.4082791,8.5952402,alna,Wallisellen
Baden,47.4774968,8.3083072,alna,Baden
Basel,47.551838,7.59271,alna,Basel
Bern,46.9475701,7.443384,alna,Bern
Bülach,47.5209742,8.5399111,alna,Bülach
Zürich,47.38453,8.53111,alna,Zürich
Luzern ,47.0544369,8.3083917,alna,Luzern
Zug,47.1725892,8.517689,alna,Zug
Zürich,47.3744048,8.5440268,alna,Zürich
Zürich,47.4087478,8.543878,alna,Zürich
Solothurn,47.20708,7.536333,alna,Solothurn
St. Gallen,47.422413,9.370891,alna,St. Gallen
Uster,47.3498692,8.7155557,alna,Uster
Winterthur,47.4967661,8.7533556,alna,Winterthur
Zürich,47.3786818,8.535889,alna,Zürich
Zürich,47.3752669,8.5361463,alna,Zürich
Zürich,47.4032754,8.4982339,alna,Oberengstringen
Alpnach ,46.9341853,8.2762082,spez,Alpnach
Altdorf,46.8796664,8.6416105,m,Altdorf (UR)
Altdorf,46.8962178,8.626639,mgls,Flüelen
Altstätten (SG),47.3771836,9.5377008,mm,Altstätten
Amriswil,47.54671,9.297961,mm,Amriswil
Amriswil,47.5448552,9.2727591,mgls,Amriswil
Amriswil ,47.54741,9.298285,fm,Amriswil
Andelfingen,47.601998,8.6887258,m,Kleinandelfingen
Appenzell,47.3348204,9.4071483,mm,Appenzell
Arbedo-Castione,46.2250903,9.0440908,m,Arbedo-Castione
Arbon,47.5119795,9.432242,mm,Arbon
Arlesheim,47.494261,7.6185546,mm,Arlesheim
Ascona,46.1540856,8.773702,m,Ascona
Ascona,46.1550202,8.7718592,pica,Ascona
Au (SG),47.431293,9.6377624,m,Au (SG)
Avenches,46.8854592,7.0451655,m,Avenches
Avry,46.7876479,7.0781119,mmm,Avry
Baar,47.195539,8.5250447,m,Baar
Bad Ragaz,47.0035166,9.5014435,dmp,Bad Ragaz
Bad Zurzach,47.5857967,8.2959683,mm,Zurzach
Baden,47.4825931,8.278909,shell,Obersiggenthal
Baden ,47.4767306,8.3078837,mr,Baden
Baden ,47.4771453,8.3086998,mm,Baden
Baden,47.4564069,8.2830446,shell,Fislisbach
Baden,47.4499939,8.2908713,soca,Fislisbach
Balerna,45.8411348,9.0159183,pica,Balerna
Balerna,45.8415389,9.0159686,pica,Morbio Inferiore
Balerna,45.8361298,9.0116168,pica,Balerna
Balsthal,47.3168586,7.6955408,m,Balsthal
Basel ,47.5559314,7.5734192,m,Basel
Basel ,47.5479172,7.5886351,m,Basel
Basel ,47.5501347,7.5783333,dmp,Basel
Basel ,47.5622371,7.5724253,mm,Basel
Basel ,47.5615832,7.5920619,mmm,Basel
Basel ,47.5528056,7.5928077,mm,Basel
Basel ,47.5393434,7.6038713,fm,Birsfelden
Basel ,47.5691589,7.5965886,mm,Basel
Basel ,47.5701213,7.6152494,m,Birsfelden
Basel ,47.5694998,7.5695768,shell,Basel
Basel ,47.5435146,7.5922222,mm,Basel
Basel ,47.549313,7.607221,m,Birsfelden
Basel ,47.577495,7.5906325,dmp,Basel
Basel ,47.55872,7.6016293,m,Basel
Basel ,47.568176,7.5697693,dmp,Basel
Basel ,47.5471518,7.620699,dmp,Birsfelden
Basel ,47.5592591,7.5877372,m,Basel
Basel ,47.5685421,7.5796836,m,Basel
Basel ,47.5469569,7.5642044,m,Binningen
Basel ,47.5560094,7.5812888,m,Basel
Basel ,47.579952,7.5957171,m,Basel
Basel ,47.5524703,7.564058,dmp,Binningen
Basel ,47.5612305,7.5647563,dmp,Basel
Basel ,47.55512,7.6150933,dmp,Birsfelden
Basel ,47.58099,7.5943537,mgls,Basel
Basel ,47.593856,7.60347,mgls,Basel
Bassersdorf,47.4422909,8.6298002,mm,Bassersdorf
Bauma,47.3681049,8.8775133,m,Bauma
Bavois,46.6746657,6.5686895,dmp,Bavois
Bavois,46.6739849,6.570611,shell,Bavois
Bavois,46.6736156,6.5693753,shell,Bavois
Bazenheid,47.4126848,9.0682158,m,Lütisburg
Belfaux,46.8259234,7.1131443,m,Belfaux
Bellinzona,46.1991221,9.0289299,soca,Bellinzona
Bellinzona ,46.1937973,9.0243305,mm,Bellinzona
Bellinzona ,46.1861062,9.013277,spez,Bellinzona
Bellinzona,46.2065522,9.0382178,pica,Arbedo-Castione
Belp,46.8964728,7.4926529,mm,Belp
Berikon ,47.3631663,8.3664932,m,Widen
Beringen,47.6963713,8.5838803,m,Beringen
Bern ,46.9392241,7.3900576,mm,Köniz
Bern ,46.949378,7.4401642,mm,Bern
Bern ,46.9488819,7.4395076,mr,Bern
Bern ,46.9475326,7.3832855,mm,Wohlen bei Bern
Bern ,46.9580156,7.4532328,m,Bern
Bern ,46.9474381,7.4379673,mm,Bern
Bern ,46.9488786,7.3965641,soca,Köniz
Bern ,46.9475739,7.4401581,m,Bern
Bern ,46.9368899,7.475067,m,Muri bei Bern
Bern ,46.9368988,7.4751852,mgls,Muri bei Bern
Bern ,46.9399808,7.4320705,m,Bern
Bern ,46.9464,7.384876,mgls,Köniz
Bern ,46.9454091,7.4727611,mm,Ostermundigen
Bern ,46.9421839,7.4531633,m,Bern
Bern ,46.9559292,7.4465984,m,Bern
Bern ,46.9482654,7.4448371,mmm,Bern
Bern ,46.9481395,7.445796,fm,Bern
Bern ,46.9395518,7.4811263,m,Muri bei Bern
Bern ,46.944202,7.3992866,m,Köniz
Bern ,46.9658677,7.4659375,mgls,Ittigen
Bern ,46.9654266,7.4589773,fm,Ittigen
Bern ,46.9480604,7.4369117,m,Bern
Bern ,46.9455311,7.3743954,mm,Wohlen bei Bern
Bern ,46.9433611,7.3706941,mgls,Wohlen bei Bern
Bern ,46.9657983,7.4635232,mm,Ittigen
Bern ,46.955387,7.433226,mm,Bern
Bern ,46.9549213,7.4300874,mig,Bern
Bern ,46.9467745,7.3953525,m,Köniz
Bex,46.2504679,7.015988,m,Bex
Biasca,46.3535809,8.9721457,m,Biasca
Biasca,46.3587333,8.969252,pica,Biasca
Biberist,47.1831041,7.5617677,m,Biberist
Biberist,47.1898607,7.5532515,soca,Biberist
Biel/Bienne ,47.1350714,7.2443054,mm,Biel/Bienne
Biel/Bienne ,47.1518033,7.2671886,m,Biel/Bienne
Biel/Bienne ,47.1320095,7.2523976,mm,Biel/Bienne
Biel/Bienne ,47.140721,7.2475398,mm,Biel/Bienne
Biel/Bienne,47.1559201,7.2822405,m,Orpund
Affoltern am Albis,47.2727413,8.4463515,spez,Affoltern am Albis
Baden,47.478212,8.3050272,spez,Baden
Ebikon,47.08554,8.346932,spez,Ebikon
Gland,46.42733,6.261512,spez,Gland
Hinwil,47.305885,8.821819,spez,Hinwil
Muri,46.9261433,7.503635,spez,Muri bei Bern
Pratteln,47.5245479,7.6818349,spez,Pratteln
Romanel,46.570633,6.60575,spez,Romanel-sur-Lausanne
Schlieren,47.401318,8.435707,spez,Schlieren
Volketswil,47.3799138,8.6777467,spez,Greifensee
Winterthur,47.4984656,8.7211386,spez,Winterthur
Zuchwil,47.21009,7.55402,spez,Zuchwil
Binningen,47.5377117,7.5719652,mig,Binningen
Binningen ,47.5324671,7.5729746,mm,Binningen
Binningen ,47.5412885,7.5742852,m,Binningen
Bioggio,46.0164899,8.9123616,pica,Bioggio
Birmensdorf,47.3541611,8.4367541,m,Birmensdorf (ZH)
Birmensdorf,47.3654476,8.4297103,shell,Birmensdorf (ZH)
Birsfelden,47.5554924,7.6242615,mm,Birsfelden
Birsfelden,47.5497163,7.6255831,mgls,Birsfelden
Bischofszell,47.4925953,9.2441346,m,Bischofszell
Bischofszell,47.492215,9.2414237,mig,Bischofszell
Bitsch,46.338042,8.0160849,dmp,Bitsch
Bière,46.5380702,6.3321026,dmp,Bière
Blonay,46.4644668,6.8952017,m,Blonay - Saint-Légier
Bolligen,46.9701472,7.4968721,mig,Bolligen
Bonstetten,47.3254148,8.4722931,dmp,Bonstetten
Boswil,47.2979933,8.316425,mgls,Boswil
Boudry,46.9539937,6.8454068,mgls,Boudry
Breitenbach ,47.4083107,7.542466,mm,Breitenbach
Bremgarten (AG),47.3556302,8.3262155,shell,Bremgarten (AG)
Bremgarten (AG),47.3513448,8.3457318,mig,Bremgarten (AG)
Bremgarten (AG),47.3526495,8.3497522,mm,Bremgarten (AG)
Bremgarten (AG),47.3522802,8.3498121,fm,Bremgarten (AG)
Bremgarten (AG),46.9753771,7.4375202,m,Bremgarten bei Bern
Brienz,46.755197,8.0282209,m,Brienz (BE)
Brig,46.3184112,7.9893511,mm,Brig-Glis
Brissago,46.1145732,8.7060466,pica,Brissago
Bronschhofen,47.4807063,9.0325903,m,Bettwiesen
Brugg,47.4828987,8.2082727,mig,Brugg
Brugg ,47.481945,8.209613,mmm,Brugg
Brugg ,47.4917188,8.2203454,mgls,Windisch
Brugg ,47.483265,8.2081207,spez,Brugg
Brunnen ,46.99991,8.608986,m,Ingenbohl
Brusino,45.914485,8.919178,pica,Vico Morcote
Brügg,47.1236832,7.278243,mig,Brügg
Brügg ,47.119664,7.267001,mmm,Port
Bubendorf,47.4568583,7.7432173,mm,Bubendorf
Buchrain ,47.0954005,8.3488964,m,Buchrain
Buchs (AG) ,47.3846372,8.0889759,mmm,Suhr
Buchs (SG),47.164196,9.4787211,spez,Buchs (SG)
Buchs (SG),47.163967,9.472575,mm,Buchs (SG)
Buchs (SG),47.1643081,9.4734086,fm,Buchs (SG)
Bulle,46.6233565,7.0563577,mgls,Bulle
Bulle ,46.6232086,7.0574539,mmm,Bulle
Bulle ,46.6192669,7.0538661,m,Bulle
Buochs,46.9777789,8.4159724,m,Buochs
Burgdorf,47.068533,7.6005253,mgls,Lyssach
Burgdorf ,47.0592476,7.6208431,mm,Burgdorf
Burgdorf ,47.0599893,7.6249767,fm,Burgdorf
Bursins,46.4446744,6.2972544,soca,Bursinel
Bussigny,46.5475444,6.5530928,mm,Bussigny
Bussigny,46.5476654,6.551894,mig,Bussigny
Bülach,47.5117034,8.5443391,mgls,Bülach
Bülach ,47.5209712,8.5399087,mm,Bülach
Bülach,47.5096113,8.5392376,mmm,Bülach
Bürglen (UR),46.8727476,8.6515004,mm,Schattdorf
Bütschwil,47.3631624,9.0730977,m,Bütschwil-Ganterschwil
Cadenazzo,46.1521213,8.9385826,pica,Cadenazzo
Camorino,46.1670889,9.0015256,soca,Sant'Antonino
Capolago,45.9099345,8.9829846,pica,Riva San Vitale
Carouge (GE),46.1834886,6.1407522,m,Carouge (GE)
Carouge (GE),46.1914249,6.1376403,m,Carouge (GE)
Carouge (GE),46.1847993,6.1339501,fm,Carouge (GE)
Carouge (GE),46.1824507,6.1344054,mm,Carouge (GE)
Carouge (GE),46.1897101,6.1318623,shell,Carouge (GE)
Caslano,45.9769776,8.8766875,m,Caslano
Caslano,45.9798317,8.8772401,pica,Neggio
Caslano,45.9740608,8.8697849,pica,Pura
Agno,45.9982691,8.9054575,mmm,Agno
Sant'Antonino,46.153893,8.961926,mmm,Cadenazzo
Sant'Antonino,46.1544523,8.9595539,fm,Cadenazzo
Cernier,47.0580103,6.9017185,mm,Val-de-Ruz
Cham,47.1826816,8.4716866,shell,Cham
Cham ,47.1820876,8.4615121,m,Cham
Chamoson,46.2020085,7.2233814,dmp,Chamoson
Genève ,46.5076352,6.6253223,chngf,Lausanne
Genève ,46.2018344,6.1517737,chngf,Genève
Genève ,46.1933173,6.199113,chngf,Chêne-Bourg
Chavannes les Cèdres,46.5305659,6.5725481,m,Chavannes-près-Renens
Cheseaux,46.5825542,6.6013953,shell,Cheseaux-sur-Lausanne
Chiasso ,45.8373775,9.0240412,m,Chiasso
Chiasso,45.8379393,9.0338472,pica,Chiasso
Chiasso,45.8214687,9.0055867,pica,Chiasso
Chur,46.8515538,9.5127989,mgls,Chur
Chur ,46.846195,9.513262,mm,Chur
Chur ,46.8515396,9.5275536,mm,Chur
Chur ,46.8577894,9.5207396,m,Chur
Chur ,46.8731603,9.5344566,soca,Chur
Chur,46.8717233,9.5346776,m,Chur
Chur,46.8729209,9.5339975,soca,Chur
Churwalden,46.7779744,9.543758,m,Churwalden
Clarens ,46.4412673,6.8934821,m,Montreux
Cointrin,46.2253308,6.1073222,mgls,Le Grand-Saconnex
Coldrerio,45.8577734,8.9853133,pica,Coldrerio
Collombey,46.2652306,6.9566145,mm,Monthey
Collombey,46.2672488,6.9531105,mgls,Monthey
Collonge,46.240334,6.1985909,mm,Collonge-Bellerive
Colombier,46.9672459,6.8517986,m,Milvignes
Conthey,46.2245292,7.3014206,mgls,Conthey
Conthey ,46.2235391,7.3009436,mmm,Conthey
Cortaillod,46.9442979,6.8429599,m,Cortaillod
Cossonay,46.6137634,6.5066553,m,Cossonay
Courtepin,46.8656187,7.1201102,m,Courtepin
Crans,46.3094446,7.4732188,m,Crans-Montana
Crissier,46.5543608,6.5690604,mmm,Crissier
Savosa,46.0164918,8.9413299,m,Massagno
Cugy,46.5877538,6.6414782,m,Cugy (VD)
Losone,46.1667017,8.7715623,fm,Losone
Zürich,47.3798176,8.5369492,m,Zürich
Davos,46.8096852,9.8419154,mig,Davos
Davos ,46.79356,9.821248,spez,Davos
Davos,46.8015209,9.8327029,mm,Davos
Davos,46.8073239,9.8382834,m,Davos
Degersheim,47.3724798,9.1965728,m,Degersheim
Delémont,47.3635367,7.34649,mm,Delémont
Delémont ,47.3613406,7.3568451,fm,Delémont
Derendingen,47.1974163,7.5836013,m,Derendingen
Dielsdorf,47.4807739,8.4644704,mm,Dielsdorf
Dielsdorf,47.4859688,8.4516463,mgls,Dielsdorf
Dielsdorf,47.4813293,8.46472,mgls,Dielsdorf
Diepoldsau,47.3857976,9.6562685,m,Diepoldsau
Dierikon ,47.0954723,8.3630434,spez,Dierikon
Diessenhofen,47.6859558,8.7521372,m,Diessenhofen
Dietikon ,47.3841388,8.3956104,mgls,Bergdietikon
Dietikon ,47.4090317,8.4051555,m,Dietikon
Dietikon ,47.4051079,8.4018695,mm,Dietikon
Dietlikon,47.4147399,8.620246,shell,Dietlikon
Dietlikon ,47.4191512,8.6216426,m,Dietlikon
Domat,46.8372082,9.4653889,m,Domat/Ems
Domdidier,46.8653776,7.0092891,m,Belmont-Broye
Dornach,47.4881024,7.6119786,m,Dornach
Däniken,47.3564228,7.9825917,shell,Däniken
Dättnau,47.477406,8.699324,m,Brütten
Döttingen,47.574184,8.255778,m,Klingnau
Dübendorf,47.3982637,8.6176168,mm,Dübendorf
Dübendorf,47.3999075,8.6234613,mig,Dübendorf
Dübendorf ,47.3983776,8.6051913,soca,Dübendorf
Dübendorf ,47.4014,8.6037,fm,Wallisellen
Dübendorf ,47.4032249,8.6074055,shell,Dübendorf
Dübendorf ,47.3954996,8.6060292,shell,Dübendorf
Dübendorf ,47.3963241,8.6231363,soca,Dübendorf
Dübendorf ,47.3976505,8.598034,m,Wallisellen
Düdingen,46.8469871,7.19207,mm,Düdingen
Düdingen,46.853979,7.1910979,shell,Düdingen
Ebikon ,47.0811001,8.3408568,mm,Ebikon
Ebikon ,47.0939482,8.3588978,mmm,Buchrain
Ebmatingen,47.350978,8.6432014,m,Fällanden
Ebnat,47.2664736,9.1197808,m,Ebnat-Kappel
Echallens,46.6388941,6.6360482,mm,Echallens
Ecublens ,46.5345194,6.5649077,mm,Ecublens (VD)
Ecublens ,46.5230466,6.5645584,m,Ecublens (VD)
Effretikon,47.4296167,8.6871464,soca,Illnau-Effretikon
Effretikon,47.4258578,8.6864773,mig,Illnau-Effretikon
Effretikon ,47.4281027,8.6857324,mm,Illnau-Effretikon
Egerkingen ,47.3175094,7.8020478,mm,Egerkingen
Egg,47.30247,8.691354,mm,Egg
Eglisau,47.5808035,8.5159717,shell,Eglisau
Eglisau,47.5792535,8.5139362,m,Eglisau
Egnach,47.5490761,9.371741,mgls,Salmsach
Egolzwil ,47.1826526,7.9838253,m,Nebikon
Einsiedeln,47.1287061,8.7459076,mm,Einsiedeln
Einsiedeln,47.1279567,8.7441361,mig,Einsiedeln
Elgg,47.4983247,8.8617399,m,Elgg
Embrach,47.5101139,8.5917376,mm,Embrach
Emmen ,47.0898808,8.2738074,m,Rothenburg
Emmen ,47.0737906,8.2930347,mm,Emmen
Emmenbrücke,47.0724171,8.2792234,mgls,Emmen
Emmenbrücke ,47.0779516,8.2752688,mm,Emmen
Engelberg,46.8207122,8.4057173,m,Engelberg
Epalinges,46.5485622,6.6708585,mm,Epalinges
Erde,46.2376096,7.2878921,dmp,Vétroz
Erlenbach ,47.3070068,8.5904643,m,Erlenbach (ZH)
Erlinsbach,47.4053477,8.0084956,m,Erlinsbach (AG)
Erstfeld,46.8251526,8.6500662,m,Erstfeld
Eschenbach,47.2408601,8.92332,m,Eschenbach (SG)
Estavayer,46.847963,6.8513418,mm,Estavayer
Etoy,46.4737122,6.4259736,m,Buchillon
Etoy,46.474662,6.4185074,mgls,Buchillon
Etoy,46.4745693,6.4181966,fm,Buchillon
Etrembières,46.1810413,6.2322629,mmm,Puplinge
Ettingen,47.4844491,7.5468089,mm,Ettingen
Eyholz ,46.2939983,7.9069943,spez,Lalden
Balzers,47.0752919,9.5121868,dmp,Wartau
Ruggell,47.2403159,9.5235234,dmp,Sennwald
Fahrwangen,47.2942089,8.2432889,m,Fahrwangen
Faido,46.4780639,8.7997979,m,Faido
Fehraltorf,47.3866248,8.755505,m,Fehraltorf
Fiesch,46.4040003,8.1355669,m,Fiesch
Fislisbach,47.4363454,8.2908926,m,Fislisbach
Flamatt,46.8896931,7.3191353,m,Neuenegg
Flamatt ,46.8899632,7.323263,mgls,Neuenegg
Flawil,47.4130548,9.1863798,mm,Flawil
Flawil,47.4155516,9.1890751,mig,Flawil
Fleurier,46.9020353,6.5805278,mm,Val-de-Travers
Forch,47.3176005,8.6666553,shell,Maur
Fornasette,45.9923867,8.7995044,pica,Astano
Frauenfeld ,47.5572448,8.896282,mig,Frauenfeld
Frauenfeld ,47.565858,8.9052823,m,Frauenfeld
Frauenfeld ,47.557151,8.8963904,mm,Frauenfeld
Frauenfeld ,47.5597074,8.900735,m,Frauenfeld
Frauenfeld ,47.5620839,8.9055846,mgls,Frauenfeld
Frauenfeld ,47.5633973,8.9077074,shell,Frauenfeld
Freienbach,47.2040089,8.7642881,shell,Freienbach
Frenkendorf,47.5015382,7.7192242,mig,Frenkendorf
Fribourg ,46.8006068,7.1444374,m,Fribourg
Fribourg ,46.7997003,7.152315,mm,Fribourg
Fribourg ,46.8097786,7.1723464,m,Fribourg
Fribourg ,46.8034025,7.1543652,m,Fribourg
Fribourg ,46.7992026,7.1337955,soca,Villars-sur-Glâne
Fribourg ,46.8033304,7.1500941,m,Fribourg
Fribourg ,46.8114955,7.139124,soca,Givisiez
Fribourg ,46.8101267,7.1490104,mm,Fribourg
Frick,47.5080226,8.0188978,m,Frick
Frutigen,46.5856019,7.6483603,m,Frutigen
Fully,46.136677,7.1193852,m,Fully
Fällanden,47.3739538,8.6409527,m,Fällanden
Füllinsdorf,47.5076558,7.7213368,mgls,Frenkendorf
Füllinsdorf,47.4993352,7.7226765,soca,Frenkendorf
Füllinsdorf ,47.502619,7.7251059,mm,Füllinsdorf
Füllinsdorf ,47.5011982,7.7249788,fm,Füllinsdorf
Gandria,46.0073342,9.0059322,pica,Canobbio
Saconnex ,46.228951,6.1198025,m,Le Grand-Saconnex
Gebenstorf,47.4900828,8.2443692,m,Turgi
Gelterkinden,47.4660758,7.8506659,mm,Gelterkinden
Genestrerio,45.8550221,8.9661279,pica,Novazzano
Genève ,46.2187665,6.1131166,mmm,Le Grand-Saconnex
Genève ,46.2189827,6.1129989,mgls,Le Grand-Saconnex
Genève ,46.1909267,6.1524674,mm,Carouge (GE)
Genève ,46.2082241,6.1231482,mm,Lancy
Genève ,46.224419,6.1078241,soca,Le Grand-Saconnex
Genève ,46.2312856,6.1102265,m,Le Grand-Saconnex
Genève ,46.2098132,6.1422156,m,Genève
Genève ,46.2039608,6.1585088,mm,Genève
Genève ,46.2039287,6.1461998,m,Genève
Genève ,46.2007896,6.1306224,mm,Genève
Genève ,46.2113723,6.1449087,mm,Genève
Genève ,46.212579,6.14974,mm,Genève
Genève ,46.1931467,6.1435018,mm,Carouge (GE)
Genève ,46.1919217,6.1639476,mm,Chêne-Bougeries
Genève ,46.212326,6.132171,m,Genève
Genève ,46.2243865,6.1258169,m,Le Grand-Saconnex
Genève ,46.2162367,6.1391683,m,Genève
Genève ,46.2007706,6.1588299,mm,Genève
Genève ,46.2198335,6.1404602,shell,Genève
Genève ,46.2012486,6.1669014,mig,Chêne-Bougeries
Gerlafingen,47.1710372,7.5740858,m,Gerlafingen
Giubiasco ,46.178211,9.0136059,m,Bellinzona
Givisiez,46.8119849,7.1370774,mgls,Givisiez
Gland,46.4170516,6.2756695,m,Gland
Gland,46.4149466,6.2724682,mgls,Gland
Glarus,47.0399224,9.0714747,mig,Glarus
Glarus ,47.0406732,9.0708899,mm,Glarus
Glattbrugg,47.4340313,8.567435,m,Opfikon
Glattbrugg,47.4289402,8.5590956,soca,Opfikon
Glattbrugg,47.4308194,8.5595076,mig,Opfikon
Glis ,46.3089074,7.9695103,mmm,Brig-Glis
Goldach,47.474811,9.4677839,m,Goldach
Goldach ,47.4787605,9.4754725,mgls,Goldach
Goldau,47.05089,8.551124,m,Arth
Gossau,47.4175531,9.2563798,mm,Gossau (SG)
Gossau,47.4119054,9.2530635,mig,Gossau (SG)
Gossau ,47.4119695,9.2504373,m,Gossau (SG)
Gossau ,47.4194624,9.2343749,mgls,Gossau (SG)
Goldau,47.4089206,9.2811214,spez,Herisau
Goldau,47.3065422,8.7558044,m,Gossau (ZH)
Grabs,47.1872693,9.4421965,dmp,Grabs
Gradelle,46.2054501,6.1812063,m,Chêne-Bougeries
Grancia,45.9712181,8.9263036,m,Grancia
Grancia,45.975298,8.928254,fm,Grancia
Grand,46.1749719,6.1223706,mm,Plan-les-Ouates
Granges ,46.8289721,7.1489877,m,Granges-Paccot
Granges,46.8219444,7.1516595,shell,Granges-Paccot
Granges,46.8209959,7.1539379,mm,Granges-Paccot
Greifensee,47.3678007,8.6796218,m,Greifensee
Grenchen,47.1897743,7.3992644,mm,Grenchen
Grenchen,47.193743,7.4055558,soca,Grenchen
Grenchen,47.1915246,7.3895251,mig,Grenchen
Grenchen,47.1905949,7.4057556,spez,Grenchen
Gränichen,47.3598479,8.0979932,m,Gränichen
Gstaad,46.4782457,7.2825683,mm,Saanen
Gümligen,46.93282,7.5042952,m,Muri bei Bern
Hasle Rüegsau,47.0134658,7.6595141,m,Hasle bei Burgdorf
Haute,46.182229,7.2918787,m,Nendaz
Hauterive,47.0100802,6.9730279,shell,Hauterive (NE)
Heiden,47.4389521,9.5361583,m,Heiden
Heimberg,46.782963,7.609361,m,Heimberg
Hergiswil,46.9845047,8.311525,m,Hergiswil (NW)
Herisau ,47.3787332,9.2788104,m,Herisau
Herrlisberg,47.2196201,8.6615398,soca,Wädenswil
Herzogenbuchsee,47.18653,7.7037935,mm,Herzogenbuchsee
Hilterfingen,46.7353444,7.6586756,m,Oberhofen am Thunersee
Hinterkappelen ,46.96677,7.3766563,mm,Wohlen bei Bern
Hinwil,47.3003215,8.8446093,m,Hinwil
Hinwil,47.3002442,8.8398702,mig,Hinwil
Hittnau,47.3631688,8.8254402,m,Hittnau
Hitzkirch,47.2222081,8.2518859,m,Hitzkirch
Hochdorf ,47.1660917,8.2913828,mm,Hochdorf
Hombrechtikon,47.2517184,8.7694304,m,Hombrechtikon
Horgen ,47.2601197,8.5970064,mm,Horgen
Horw,47.0189983,8.309017,m,Horw
Hunzenschwil,47.386801,8.1142192,shell,Hunzenschwil
Huttwil,47.1137122,7.8401887,mm,Huttwil
Hägendorf,47.3286815,7.8315137,spez,Hägendorf
Hünibach,46.7451794,7.6454474,m,Hilterfingen
Ibach,47.015464,8.6463388,mgls,Schwyz
Ibach,47.0155468,8.64652,mmm,Schwyz
Ilanz ,46.7745715,9.2075797,mm,Ilanz/Glion
Interlaken,46.6815587,7.8521379,mm,Interlaken
Interlaken,46.6831647,7.852176,mig,Interlaken
Interlaken,46.6884398,7.8767761,mgls,Matten bei Interlaken
Ipsach,47.1156818,7.2353249,m,Ipsach
Ipsach,47.1086124,7.2261597,mgls,Sutz-Lattrigen
Ittigen,46.9742162,7.4852772,mm,Ittigen
Ittigen ,46.9897356,7.4778766,soca,Ittigen
Jona,47.2296039,8.8438587,soca,Rapperswil-Jona
Jona ,47.2314638,8.8373964,m,Rapperswil-Jona
Kaltbrunn,47.2132724,9.0242575,dmp,Kaltbrunn
Kerzers,46.9737039,7.1939798,m,Kerzers
Kirchberg,47.088436,7.5816193,mm,Kirchberg (BE)
Kirchberg,47.4390646,9.0564532,shell,Rickenbach (TG)
Kirchberg,47.4388794,9.0568321,m,Rickenbach (TG)
Kloten,47.4505,8.582302,mm,Kloten
Kollbrunn,47.4578401,8.7707847,m,Zell (ZH)
Konolfingen,46.8764297,7.6211259,mm,Konolfingen
Kreuzlingen,47.6481842,9.1756501,m,Kreuzlingen
Kreuzlingen,47.6398924,9.2005749,mgls,Bottighofen
Kreuzlingen,47.654965,9.1649149,soca,Kreuzlingen
Kreuzlingen ,47.6418058,9.1960063,mm,Bottighofen
Kriens,47.0265464,8.2993812,shell,Horw
Kriens,47.0342359,8.2649154,mgls,Kriens
Kriens ,47.0337928,8.2829724,mm,Kriens
Kriens ,47.0267443,8.30067,m,Horw
Kölliken,47.3298578,8.0302701,mig,Kölliken
Köniz ,46.9235082,7.414453,mm,Köniz
Küssnacht ,47.3168924,8.5800114,soca,Küsnacht (ZH)
Küssnacht ,47.3185861,8.5821107,m,Küsnacht (ZH)
Küssnacht ,47.0836743,8.4412034,mm,Küssnacht (SZ)
La Charrière,47.112343,6.8354115,m,La Chaux-de-Fonds
La Neuveville,47.0618892,7.0886002,m,La Neuveville
La Roche,46.6980151,7.1419287,m,La Roche
La Tour de Trême,46.6004826,7.0758334,mm,Gruyères
La Vallée,46.6058382,6.2305712,m,Le Chenit
Lachen,47.1917747,8.8549009,mm,Lachen
Landquart,46.9677876,9.561865,mm,Landquart
Landquart,46.9703193,9.5920821,shell,Malans
Langendorf ,47.2184063,7.5113259,mmm,Langendorf
Langenthal,47.2143024,7.7841656,mm,Langenthal
Langenthal ,47.2193025,7.7880675,fm,Langenthal
Langnau am Albis,47.2911414,8.5376553,m,Langnau am Albis
Langnau im Emmental,46.9398058,7.787702,mm,Langnau im Emmental
Laufen ,47.419968,7.5018211,mm,Laufen
Lausanne,46.517094,6.605965,soca,Prilly
Lausanne ,46.5376065,6.6333517,m,Lausanne
Lausanne ,46.5314548,6.618466,mm,Prilly
Lausanne ,46.5273163,6.6515176,mm,Pully
Lausanne ,46.5148689,6.6327124,mm,Lausanne
Lausanne ,46.5157505,6.6176221,m,Lausanne
Lausanne ,46.5206694,6.6296469,m,Lausanne
Lausanne ,46.527164,6.6331596,m,Lausanne
Lausanne ,46.5124378,6.62609,m,Lausanne
Lausanne ,46.5170701,6.6073333,shell,Prilly
Lausanne ,46.5333108,6.6467899,m,Lausanne
Lausanne ,46.5253972,6.6230282,dmp,Lausanne
Lausanne ,46.5195069,6.6258276,shell,Lausanne
Lausanne ,46.5227583,6.6269854,mmm,Lausanne
Lausanne ,46.5277032,6.615942,m,Prilly
Lausanne ,46.5216627,6.6166202,m,Lausanne
Le Bouveret,46.3773421,6.8606288,m,Port-Valais
Le Châble,46.080919,7.2140344,dmp,Val de Bagnes
Le Landeron,47.0563834,7.0607499,m,Le Landeron
Le Lignon,46.2034469,6.0963765,m,Vernier
Le Lignon,46.2064893,6.1094413,shell,Lancy
Le Locle,47.0561079,6.7477529,mm,Le Locle
Le Locle,47.0637861,6.7606997,soca,Le Locle
Lenzburg,47.3870206,8.1768398,mm,Lenzburg
Lenzburg ,47.3911132,8.1703375,mig,Lenzburg
Leuk,46.3166844,7.6342235,dmp,Leuk
Leukerbad,46.377942,7.6252028,m,Leukerbad
Leysin,46.3452121,7.0155421,dmp,Leysin
Leytron,46.1872356,7.2085967,dmp,Leytron
Liestal,47.4825911,7.7359876,mm,Liestal
Liestal,47.4851282,7.731261,mig,Liestal
Ligornetto,45.8646321,8.9436371,pica,Stabio
Littau,47.0497563,8.2601648,spez,Kriens
Locarno,46.1670338,8.7897896,soca,Locarno
Locarno ,46.1656809,8.7957267,mm,Locarno
Locarno ,46.1684941,8.7824201,m,Locarno
Lostorf,47.3831117,7.9478151,m,Lostorf
Lugano ,46.0061779,8.9657425,mm,Lugano
Lugano ,46.0070314,8.9517478,mmm,Lugano
Lugano ,46.0183828,8.9586482,m,Savosa
Lugano ,45.9909707,8.9457919,m,Paradiso
Lugano ,46.0184296,8.956658,pica,Savosa
Lugano,46.0106009,8.9634004,pica,Lugano
Lupfig,47.4401518,8.2085453,m,Lupfig
Lutry,46.51285,6.6782126,m,Belmont-sur-Lausanne
Luzern ,47.031586,8.304944,m,Horw
Luzern ,47.0501738,8.3103365,m,Luzern
Luzern ,47.0497659,8.3097035,m,Luzern
Luzern ,47.050865,8.299126,m,Luzern
Luzern ,47.0544761,8.3402123,m,Ebikon
Luzern ,47.0494761,8.2633687,m,Kriens
Luzern ,47.0611806,8.3078217,m,Luzern
Luzern ,47.054745,8.3096768,mm,Luzern
Luzern ,47.0372897,8.3283997,mm,Luzern
Luzern ,47.0462259,8.3071716,m,Luzern
Luzern ,47.0624023,8.3168607,dmp,Luzern
Luzern ,47.0550833,8.3437092,m,Adligenswil
Lyss,47.078457,7.304151,mm,Lyss
Boudry,46.9505063,6.8405634,m,Boudry
Pont-Rouge,46.1872348,6.1274789,m,Lancy
La Sarraz,46.6539794,6.5094894,dmp,La Sarraz
Ouchy,46.5080062,6.6247256,dmp,Lausanne
Maggia,46.2455272,8.7058678,m,Maggia
Malters,47.0378576,8.1793523,m,Malters
Manno,46.032538,8.922815,mgls,Manno
Marin,47.0123055,7.0109105,mgls,La Tène
Marin,47.0116002,7.0079209,mmm,La Tène
Marly ,46.7761541,7.1612389,mm,Marly
Martigny,46.1057968,7.0858975,mgls,Martigny
Martigny,46.1058182,7.078928,mig,Martigny
Martigny ,46.1017023,7.0718577,mmm,Martigny
Martigny,46.1054118,7.0869748,m,Martigny
Martigny,46.1117763,7.0765592,fm,Martigny
Massagno ,46.0097658,8.9390275,m,Massagno
Matten,46.6734205,7.8681811,m,Matten bei Interlaken
Matzingen,47.5268556,8.9221349,m,Matzingen
Meggen,47.0547158,8.3896806,mgls,Meggen
Meilen,47.2683937,8.6454362,mm,Meilen
Meiringen,46.7282562,8.1847964,mm,Meiringen
Melano,45.9194213,8.9853335,m,Riva San Vitale
Melano,45.9314831,8.9741886,pica,Bissone
Mellingen,47.4130888,8.2668681,m,Mellingen
Mels ,47.0420585,9.4313323,mmm,Sargans
Mendrisio,45.8703698,8.9859445,m,Mendrisio
Mendrisio ,45.8675627,8.9774245,pica,Mendrisio
Mendrisio ,45.859934,8.9713351,m,Mendrisio
Mendrisio,45.8749534,8.9843344,mig,Mendrisio
Mendrisio,45.8731313,8.9787787,pica,Mendrisio
Menziken,47.2416,8.1865863,m,Menziken
Meyrin,46.2319199,6.0826195,mm,Meyrin
Meyrin,46.2273525,6.0783775,shell,Meyrin
Meyrin,46.2340918,6.0547036,soca,Meyrin
Meyrin,46.2305986,6.0848783,shell,Meyrin
Mies,46.2961134,6.1671648,shell,Mies
Brig,46.307879,7.9663489,mgls,Brig-Glis
Minusio ,46.1753162,8.8113912,m,Minusio
Montagny,46.7879937,6.6213952,mm,Montagny-près-Yverdon
Montagny,46.788334,6.6206996,mgls,Montagny-près-Yverdon
Monthey ,46.2535582,6.9522265,mmm,Monthey
Montreux,46.4324309,6.9100946,mm,Montreux
Montreux,46.4394305,6.9053644,soca,Montreux
Montreux,46.4358712,6.9103016,mig,Montreux
Morbio,45.8452376,9.0161047,mmm,Morbio Inferiore
Morges,46.509724,6.4948939,mm,Morges
Morges,46.5175234,6.512351,mgls,Morges
Moudon,46.6695393,6.8005522,mm,Moudon
Moutier,47.2766867,7.3698395,mm,Moutier
Moutier,47.2820245,7.3806655,mig,Moutier
Murgenthal,47.2649304,7.8289909,m,Murgenthal
Muri (AG),47.2720346,8.3419017,mm,Muri (AG)
Murten,46.9300318,7.1227072,mm,Murten
Muttenz,47.530439,7.6384758,soca,Muttenz
Muttenz,47.5269738,7.6558199,mgls,Muttenz
Muttenz ,47.5338563,7.6333891,m,Muttenz
Muttenz ,47.5263912,7.6556813,mm,Muttenz
Männedorf,47.2529296,8.6959795,m,Männedorf
Mézières,46.5963744,6.7698099,dmp,Jorat-Mézières
Möhlin,47.5563791,7.8469474,m,Möhlin
Müllheim,47.6001921,9.0003577,m,Müllheim
Münchenbuchsee ,47.0199113,7.4511193,m,Münchenbuchsee
Münchenstein,47.5258887,7.6038428,soca,Münchenstein
Münchenstein ,47.5215941,7.6069894,mm,Münchenstein
Münchwilen,47.4777001,8.9982661,m,Münchwilen (TG)
Münsingen,46.8731986,7.5601405,mm,Münsingen
Naters,46.3252623,7.9901216,m,Naters
Netstal,47.0621105,9.0540578,soca,Glarus
Neuchâtel ,46.9982008,6.9247704,m,Neuchâtel
Neuchâtel ,46.991987,6.929815,mm,Neuchâtel
Neuchâtel ,47.0040433,6.9553682,m,Hauterive (NE)
Neuchâtel,46.9876942,6.918138,shell,Neuchâtel
Neuenhof,47.4501589,8.3275251,m,Neuenhof
Neuenkirch,47.0981822,8.2050715,dmp,Neuenkirch
Neuhausen am Rheinfall,47.6858485,8.6214126,shell,Neuhausen am Rheinfall
Neunkirch,47.6903787,8.5045443,m,Neunkirch
Neyruz,46.7671371,7.0655105,m,Neyruz (FR)
Nidau,47.1263507,7.2463285,mm,Nidau
Nidau,47.1196079,7.2429925,soca,Nidau
Niederhasli,47.479847,8.485262,m,Niederhasli
Niederurnen,47.1284992,9.0559104,m,Glarus Nord
Noranco,45.9797746,8.9291844,soca,Grancia
Novazzano,45.8451092,8.9643717,pica,Novazzano
Novazzano,45.8451093,8.9643073,pica,Novazzano
Novazzano,45.8395427,8.981303,pica,Novazzano
Noville,46.388792,6.9209862,m,Villeneuve (VD)
Noville,46.3864173,6.9204954,mgls,Rennaz
Nussbaumen ,47.487854,8.2925534,m,Obersiggenthal
Nyon,46.3824876,6.2167268,soca,Eysins
Nyon ,46.3827028,6.2348109,mmm,Nyon
Nyon ,46.3883058,6.2206729,fm,Eysins
Näfels,47.0936714,9.05966,m,Glarus Nord
Oberburg,47.0324969,7.6326438,mgls,Oberburg
Oberengstringen,47.4086394,8.462976,m,Oberengstringen
Oberglatt,47.4702272,8.5106565,mig,Oberglatt
Oberglatt,47.4763679,8.5051151,soca,Oberglatt
Oberkirch,47.1651653,8.1137803,m,Sursee
Obermeilen,47.2654485,8.652638,soca,Meilen
Oberrieden,47.2766939,8.5776055,mig,Oberrieden
Oberriet,47.3158345,9.5634422,m,Oberriet (SG)
Oberwil,47.5099303,7.5546791,mmm,Oberwil (BL)
Oensingen,47.2889751,7.718937,m,Oensingen
Oftringen,47.3125554,7.9213265,mm,Oftringen
Oftringen,47.3051574,7.9308863,shell,Oftringen
Oftringen,47.29749,7.9359853,soca,Zofingen
Oftringen ,47.308499,7.9276772,fm,Oftringen
Olten ,47.3452266,7.9075153,mgls,Olten
Olten ,47.3499928,7.8987827,mm,Olten
Olten ,47.3463482,7.9104394,mm,Olten
Olten ,47.3465494,7.9103665,fm,Olten
Olten ,47.3515901,7.9086432,mig,Olten
Onex,46.1846747,6.1035615,soca,Onex
Opfikon,47.4161074,8.5637435,soca,Opfikon
Opfikon ,47.4212446,8.5579927,mm,Opfikon
Orbe,46.7237876,6.5313631,m,Orbe
Orbe,46.7216848,6.5388544,m,Orbe
Oron,46.5719556,6.8257176,m,Oron
Ostermundigen,46.956966,7.495635,mm,Ostermundigen
Ostermundigen Poststrasse,46.95615,7.4827247,m,Ostermundigen
Othmarsingen,47.4070248,8.2195193,mgls,Othmarsingen
Dietlikon ,47.4121821,8.6191977,spez,Dietlikon
Eglisau,47.5686492,8.5233301,spez,Eglisau
Romanel,46.5738718,6.6061476,spez,Romanel-sur-Lausanne
Winterthur,47.4959879,8.7503749,spez,Winterthur
Payerne,46.8201631,6.9396282,mm,Payerne
Payerne,46.8196551,6.9397961,mig,Payerne
Peseux,46.9859094,6.8895441,mm,Milvignes
Pfungen,47.5172846,8.6500909,m,Pfungen
Pfungen,47.5186335,8.6501686,fm,Pfungen
Pfäffikon ,47.2005836,8.7927006,mm,Freienbach
Pfäffikon (ZH),47.3686343,8.7812381,mm,Pfäffikon
Pfäffikon (ZH),47.3669849,8.7848528,mig,Pfäffikon
Plaffeien,46.7397917,7.2910651,m,Plaffeien
Plan,46.1674266,6.1148529,mm,Plan-les-Ouates
Plan,46.1648588,6.11076,mgls,Plan-les-Ouates
Pontaise,46.530315,6.6284723,dmp,Lausanne
Ponte Cremenaga,45.9929238,8.788448,pica,Astano
Porrentruy,47.4164582,7.0771359,mm,Porrentruy
Porrentruy,47.4214043,7.0788305,shell,Porrentruy
Porte de Versoix,46.2744374,6.1674765,mm,Versoix
Pratteln,47.5204545,7.6940945,mm,Pratteln
Pratteln,47.5237214,7.7059835,mgls,Pratteln
Pratteln,47.521259,7.704295,dmp,Pratteln
Pregassona,46.0236673,8.9672005,m,Canobbio
Prilly,46.5332121,6.6077373,m,Prilly
Prilly,46.5274181,6.6027559,soca,Prilly
Prilly ,46.526852,6.6028429,m,Prilly
Prilly ,46.527401,6.6028735,shell,Prilly
Prilly ,46.537932,6.6011857,mgls,Prilly
Préverenges,46.5188722,6.5166645,m,Lonay
Puidoux,46.4922982,6.769391,dmp,Chexbres
Pully,46.5116743,6.6596672,mm,Pully
Rain,47.1269865,8.2496975,m,Rain
Ramsen,47.7067582,8.8206881,dmp,Ramsen
Rapperswil ,47.2290317,8.8205077,mm,Rapperswil-Jona
Rapperswil ,47.2258032,8.818166,m,Rapperswil-Jona
Rebstein,47.3971838,9.5813963,dmp,Rebstein
Regensdorf,47.4374921,8.4744151,mgls,Regensdorf
Regensdorf,47.4380292,8.4735797,soca,Regensdorf
Regensdorf ,47.4313251,8.4691306,mmm,Regensdorf
Reichenburg,47.1730561,8.9691015,m,Reichenburg
Reiden,47.2484269,7.9715113,m,Reiden
Reiden ,47.247006,7.9578136,spez,Reiden
Reinach,47.2591663,8.1847692,mgls,Reinach (AG)
Reinach ,47.5022541,7.5964432,mm,Reinach (BL)
Reinach ,47.4926693,7.5944243,m,Reinach (BL)
Reinach (AG),47.2578265,8.1816799,mm,Reinach (AG)
Reinach BL,47.4894532,7.5983027,mgls,Reinach (BL)
Reinach,47.4887274,7.5963235,fm,Reinach (BL)
Relais du St.Bernard,46.1264947,7.0605196,shell,Vernayaz
Renens,46.5339363,6.5852658,mgls,Renens (VD)
Renens ,46.5309348,6.5977745,m,Prilly
Renens ,46.5385453,6.580878,mm,Renens (VD)
Renens Quai Ouest,46.5377156,6.5772597,m,Renens (VD)
Renens Silo,46.5333413,6.5856489,m,Renens (VD)
Rheineck,47.4684353,9.5886584,m,Rheineck
Rheinfall,47.692882,8.6233955,soca,Schaffhausen
Rheinfelden,47.555335,7.7982876,mm,Rheinfelden
Riazzino,46.1752568,8.8895944,m,Lavertezzo
Richterswil,47.2063902,8.7053798,m,Richterswil
Riehen ,47.5852499,7.6519616,mm,Riehen
Riehen ,47.5754561,7.6468453,dmp,Riehen
Riehen ,47.569669,7.6332176,dmp,Riehen
Rolle,46.4611,6.3383807,mm,Rolle
Rolle,46.4627709,6.3350193,mgls,Rolle
Romanel,46.5590513,6.6130138,mmm,Romanel-sur-Lausanne
Romanshorn,47.5651688,9.3781482,mig,Romanshorn
Romanshorn ,47.5646479,9.3674826,mm,Salmsach
Romont,46.6926707,6.9126508,mm,Romont (FR)
Rorschach ,47.4740862,9.4950791,m,Rorschach
Rorschach ,47.4778206,9.4889596,mm,Rorschach
Rothenburg,47.0946381,8.2450217,fm,Rothenburg
Rothrist,47.3066918,7.8866601,m,Rothrist
Rothrist,47.3116536,7.8953841,mgls,Aarburg
Rotkreuz,47.1411731,8.4287677,m,Risch
Rotkreuz,47.1476159,8.4345645,shell,Risch
Ruopigen Zentrum Luzern,47.0622438,8.2740577,m,Emmen
Ruswil,47.0884106,8.1127902,m,Ruswil
Réchy,46.2617504,7.4944589,dmp,Chalais
Rümlang,47.4618798,8.5241895,shell,Rümlang
Rümlang Hofwisencenter,47.4509866,8.537906,m,Rümlang
Rüschlikon Parkside,47.3010372,8.5488346,m,Rüschlikon
Rüti (ZH),47.2581252,8.8489703,mm,Rüti (ZH)
Rüti (ZH),47.2530884,8.85329,fm,Rüti (ZH)
Frauenfeld,47.56133,8.889193,soca,Frauenfeld
Kölliken,47.3298799,8.0303425,soca,Kölliken
Gambarogno,46.15173,8.915083,soca,Cugnasco-Gerra
Saas Fee,46.1085428,7.9281535,m,Saas-Fee
Saignelégier,47.254553,6.9998167,m,Saignelégier
Sainte,46.819495,6.5032791,m,Sainte-Croix
Samedan,46.531044,9.873851,mm,Samedan
Samedan,46.5310064,9.8725017,mig,Samedan
Mesocco,46.4674155,9.1875987,soca,Mesocco
Sant'Antonino,46.1548802,8.9625176,mgls,Cadenazzo
Sargans,47.0456746,9.4450266,mig,Sargans
Sarnen ,46.8967489,8.2494742,mm,Sarnen
Savièse,46.2502976,7.3519659,m,Savièse
Saxon,46.148724,7.1732993,m,Saxon
Schaan,47.1692926,9.5037209,m,Buchs (SG)
Schaffhausen,47.6972995,8.6329323,mta,Schaffhausen
Schaffhausen ,47.7064686,8.6200072,m,Schaffhausen
Schaffhausen ,47.6992534,8.6542202,m,Feuerthalen
Schaffhausen ,47.7029976,8.6453389,soca,Feuerthalen
Schaffhausen ,47.7203,8.664005,mmm,Stetten (SH)
Schaffhausen ,47.6987731,8.6339358,mm,Schaffhausen
Schindellegi,47.1756607,8.7133184,m,Wollerau
Schlieren,47.3986921,8.4474972,mig,Schlieren
Schlieren,47.3963885,8.4403664,soca,Schlieren
Schlieren ,47.3961553,8.4371696,m,Schlieren
Schlieren ,47.40073,8.434955,mm,Schlieren
Schlieren ,47.3986438,8.4468471,m,Schlieren
Schmerikon ,47.2252089,8.9432488,mig,Schmerikon
Schmerikon ,47.2301268,8.9619698,mgls,Schmerikon
Schwarzenburg,46.8177012,7.339902,m,Schwarzenburg
Schwerzenbach,47.3843854,8.6587636,mig,Schwerzenbach
Schöftland,47.3027032,8.0474765,m,Schöftland
Schönbühl ,47.0158434,7.4905873,fm,Moosseedorf
Schönbühl ,47.0169335,7.4923677,mmm,Moosseedorf
Schönenwerd,47.3735275,8.0031216,m,Schönenwerd
Schüpfheim,46.9482657,8.0165859,m,Schüpfheim
Sembrancher,46.0791549,7.1446967,m,Sembrancher
Sementina,46.1822199,8.9920373,m,Sant'Antonino
Sempach Station,47.1169163,8.1993284,m,Neuenkirch
Seon,47.3477982,8.1612469,m,Seon
Seuzach,47.5355288,8.7303174,m,Seuzach
Shell Illnau,47.407036,8.726769,shell,Fehraltorf
Siebnen,47.1761348,8.9076441,mgls,Wangen (SZ)
Sierre,46.292358,7.5291519,mm,Sierre
Sierre Rossfeld,46.2814938,7.5133829,fm,Chalais
Sihlbrugg,47.2173651,8.5765731,mgls,Neuheim
Sins,47.1852946,8.3973587,mgls,Sins
Sion,46.2290537,7.3452206,mgls,Sion
Sion ,46.2358562,7.3595336,m,Sion
Sion ,46.2286124,7.356213,mmm,Sion
Sion ,46.2314201,7.3843456,m,Sion
Sion ,46.2281227,7.3785208,spez,Sion
Sirnach,47.4634678,8.9916638,m,Münchwilen (TG)
Sissach,47.462086,7.816352,mm,Sissach
Pizzamiglio,45.8428056,9.0371612,soca,Vacallo
Solothurn,47.2068855,7.533167,m,Solothurn
Solothurn,47.2114448,7.5238037,shell,Solothurn
Solothurn,47.2112133,7.5446377,m,Zuchwil
Solothurn,47.2113187,7.5261313,m,Solothurn
Spiez ,46.6857824,7.6817159,mm,Spiez
Spreitenbach,47.4218343,8.3676836,mm,Spreitenbach
Spreitenbach ,47.4233238,8.3700585,mmm,Spreitenbach
Spreitenbach,47.4245244,8.3708882,spez,Spreitenbach
Saint-Gingolph,46.38515,6.830586,shell,Port-Valais
Saint-Imier,47.1515265,6.9952813,m,Saint-Imier
Saint-Maurice,46.2147953,7.0052498,m,Saint-Maurice
St. Gallen ,47.4100595,9.3354232,m,Gaiserwald
St. Gallen ,47.4204665,9.3536906,m,Gaiserwald
St. Gallen ,47.4352582,9.3862519,m,St. Gallen
St. Gallen ,47.4372078,9.4050204,m,St. Gallen
St. Gallen ,47.4221431,9.3705537,mmm,St. Gallen
St. Gallen ,47.4351257,9.4020661,mgls,St. Gallen
St. Gallen ,47.4311418,9.3950643,m,St. Gallen
St. Gallen ,47.4252078,9.3782359,m,St. Gallen
St. Gallen ,47.4358241,9.391591,mm,St. Gallen
St. Gallen ,47.4256387,9.3745396,mig,St. Gallen
St. Gallen ,47.4117293,9.3360605,shell,Gaiserwald
St. Gallen ,47.4162391,9.3452081,mgls,Gaiserwald
St. Gallen,47.4230367,9.3695057,mr,St. Gallen
St. Gallen,47.4149328,9.3123033,fm,Gaiserwald
Inwil,47.1194294,8.3744025,soca,Root
Inwil,47.1187123,8.3749711,soca,Root
St. Margrethen ,47.4551321,9.6382129,mgls,St. Margrethen
St. Margrethen ,47.4501472,9.6513499,mmm,St. Margrethen
St. Moritz,46.497821,9.845483,mig,St. Moritz
St. Niklaus,46.1810239,7.8064848,dmp,St. Niklaus
St. Gallen,47.4230672,9.3733977,spez,St. Gallen
Staad,47.4804973,9.5318113,shell,Rorschacherberg
Stabio,45.8485669,8.9364332,m,Stabio
Stabio,45.8441314,8.9223671,pica,Stabio
Stabio,45.8424959,8.919321,pica,Stabio
Stabio,45.8448496,8.9270699,pica,Stabio
Stalden,46.2326654,7.8708057,dmp,Stalden (VS)
Stalden,46.2470999,7.8768003,mgls,Stalden (VS)
Stans,46.9663706,8.3529125,mgls,Stans
Stans ,46.9646845,8.3556565,mmm,Stans
Steckborn,47.6639509,8.9758158,m,Steckborn
Steffisburg,46.7810832,7.6335904,m,Steffisburg
Steffisburg,46.76586,7.6245157,mgls,Thun
Steg,46.3147018,7.7453717,m,Gampel-Bratsch
Steg,46.3062985,7.750871,mgls,Steg-Hohtenn
Stein,47.5492231,7.9544805,m,Stein (AG)
Stein,47.5476265,7.9535086,shell,Stein (AG)
Stein am Rhein,47.6514436,8.8526236,m,Stein am Rhein
Steinhausen ,47.1920625,8.4777745,mmm,Steinhausen
Steinhausen ,47.1970572,8.4846747,m,Steinhausen
Stäfa,47.2406714,8.7234301,mm,Stäfa
Stäfa,47.2407708,8.7148207,soca,Stäfa
Sugiez,46.9665241,7.1238781,mgls,Mont-Vully
Suhr,47.3717739,8.0821995,mig,Suhr
Suhr ,47.3697291,8.0811156,spez,Suhr
Suhr ,47.3732376,8.0816706,m,Suhr
Sulgen,47.5324881,9.1884781,mig,Sulgen
Sulgen ,47.5401419,9.1829867,m,Sulgen
Sursee,47.1736868,8.1000927,mgls,Sursee
Sursee,47.1728531,8.1021962,mmm,Sursee
Sursee,47.1724395,8.1011326,fm,Sursee
Susten,46.3114821,7.6407791,dmp,Leuk
Taesch,46.0709528,7.77679,dmp,Täsch
Tavannes,47.21932,7.1978861,m,Tavannes
Tavannes,47.223466,7.2035769,shell,Tavannes
Taverne,46.060572,8.9315827,m,Torricella-Taverne
Taverne,46.0593998,8.9304134,fm,Torricella-Taverne
Tenero,46.1795605,8.8517014,m,Tenero-Contra
Tesserete,46.0675557,8.9669567,m,Capriasca
Teufen,47.3907355,9.3908514,m,Teufen (AR)
Thal,47.4795373,9.5771551,m,Thal
Thalwil,47.2941879,8.5640824,mm,Thalwil
Thayngen,47.7488083,8.7067801,m,Thayngen
Thayngen,47.7404286,8.7147398,mgls,Thayngen
Therwil,47.499527,7.5536596,dmp,Therwil
Therwil,47.4966992,7.5643512,shell,Therwil
Thierrens,46.7044032,6.7550064,dmp,Montanaire
Thoiry,46.2286354,5.9941326,mmm,Dardagny
Thun,46.7542958,7.6275516,shell,Thun
Thun ,46.7601164,7.6266358,mm,Thun
Thun ,46.7450418,7.6261582,m,Thun
Thun ,46.7447598,7.614778,mmm,Thun
Thun ,46.7441475,7.6053619,fm,Thun
Thun ,46.7449484,7.6076245,mgls,Thun
Thusis ,46.6944915,9.4398532,mm,Thusis
Thônex,46.1930274,6.1996185,mm,Chêne-Bourg
Thônex,46.1986526,6.2128684,shell,Thônex
Tramelan,47.2234176,7.0997558,m,Tramelan
Triesen,47.108894,9.525209,m,Sevelen
Trübbach,47.0750277,9.4862183,mgls,Wartau
Turbenthal,47.4385237,8.8445994,m,Turbenthal
Tägerwilen,47.6538552,9.1419927,m,Tägerwilen
Uetendorf,46.7739279,7.5741096,m,Uetendorf
Uitikon,47.3687168,8.4616665,m,Uitikon
Unterentfelden,47.3619645,8.0456204,mm,Unterentfelden
Unterwetzikon,47.3135,8.795556,m,Wetzikon (ZH)
Unterägeri,47.1380428,8.579203,m,Unterägeri
Urdorf ,47.3848945,8.4223769,m,Urdorf
Uster,47.3521726,8.7226744,shell,Uster
Uster ,47.349891,8.7152446,mmm,Uster
Uster,47.3542567,8.7136066,fm,Uster
Utzenstorf ,47.1284908,7.5585845,m,Utzenstorf
Uznach ,47.2264591,8.9806843,mm,Uznach
Uzwil ,47.436874,9.133884,mm,Uzwil
Aarburg,47.320554,7.9071351,voi,Aarburg
Aarwangen,47.2362174,7.7718237,voi,Aarwangen
Alpnach,46.939833899999996,8.2709654,voi,Alpnach
Baden,47.4673446,8.2932847,voi,Baden
Bern,46.9453512,7.3902179,voi,Köniz
Bern,46.9413645,7.4185558,voi,Köniz
Bern,46.9481109,7.4497459,voi,Bern
Bern,46.9453775,7.4629318,voi,Bern
Bern,46.9264088,7.433499,voi,Köniz
Bern,46.9536364,7.4545541,voi,Bern
Beromünster,47.209729,8.1917754,voi,Beromünster
Bettlach,47.1993568,7.426077,voi,Bettlach
Biel/Bienne,47.1454026,7.2632867,voi,Biel/Bienne
Biel/Bienne,47.1426268,7.2721353,voi,Brügg
Boll,46.9546925,7.5479454,voi,Vechigen
Brügg,47.1239464,7.2804096,voi,Brügg
Buchs (ZH),47.4563902,8.4396784,voi,Buchs (ZH)
Büron,47.2136699,8.0944046,voi,Büron
Dulliken,47.354143,7.9345418,voi,Starrkirch-Wil
Genève,46.2010565,6.1397642,voi,Genève
Geroldswil,47.4215795,8.4117228,voi,Geroldswil
Gland,46.4232158,6.2617789,voi,Gland
Grindelwald,46.6236074,8.0391045,voi,Grindelwald
Horgen,47.2548701,8.6119618,voi,Horgen
Ins,47.0042581,7.1070561,voi,Ins
Jegenstorf,47.051416,7.5103611,voi,Jegenstorf
Kappel,47.3236429,7.8468992,voi,Kappel (SO)
Kilchberg,47.3245116,8.5480624,voi,Kilchberg (ZH)
Lengnau,47.1808069,7.3631011,voi,Lengnau (BE)
Meyrin,46.2309568,6.0668592,voi,Meyrin
Niederbipp,47.2698326,7.6926322,voi,Niederbipp
Niedergösgen,47.3717743,7.9936894,voi,Niedergösgen
Niederlenz,47.3990619,8.1777989,voi,Niederlenz
Niederrohrdorf,47.4250876,8.30086,voi,Niederrohrdorf
Roggwil,47.2393252,7.8218895,voi,Roggwil (BE)
Rombach,47.401845,8.0448105,voi,Aarau
Rümlang,47.4497963,8.5315694,voi,Rümlang
Safenwil,47.321305,7.9851441,voi,Safenwil
Schwerzenbach,47.3851497,8.6589504,voi,Schwerzenbach
Seengen,47.3249241,8.2036078,voi,Seengen
Sempach,47.1362307,8.1920443,voi,Sempach
Siebnen,47.1753754,8.9004331,voi,Wangen (SZ)
Stans,46.9565347,8.366329,voi,Stans
Steffisburg,46.773617,7.6161447,voi,Thun
Strengelbach,47.2784744,7.9286,voi,Strengelbach
Studen,47.1142052,7.3011494,voi,Studen (BE)
Sumiswald,47.0288821,7.7463868,voi,Sumiswald
Trimbach,47.3623369,7.8988859,voi,Trimbach
Unterkulm,47.310751,8.1136799,voi,Unterkulm
Wabern,46.9286391,7.4523149,voi,Bern
Wallisellen,47.41978,8.597648,voi,Wallisellen
Wangen an der Aare,47.23393,7.6554199,voi,Wangen an der Aare
Wichtrach,46.850993,7.5753497,voi,Wichtrach
Wilderswil,46.6660645,7.8690846,voi,Wilderswil
Zürich,47.3963402,8.4863988,voi,Oberengstringen
Zürich,47.3952404,8.5184213,voi,Zürich
Zürich,47.3705108,8.4928295,voi,Wettswil am Albis
Zürich,47.3297396,8.5153194,voi,Adliswil
Zürich,47.3347241,8.5294762,voi,Kilchberg (ZH)
Zürich,47.3599907,8.5939597,voi,Zollikon
Vacallo,45.8432895,9.0372212,pica,Vacallo
Vallorbe,46.7117213,6.3777456,m,Vallorbe
Verbano,46.1749888,8.8172485,shell,Minusio
Verbier,46.0966164,7.2232795,m,Val de Bagnes
Vernier,46.2213008,6.077728,mgls,Meyrin
Vernier ,46.2167048,6.0833327,m,Vernier
Vernier ,46.2170639,6.0869554,spez,Vernier
Versoix,46.2797694,6.1658024,mig,Versoix
Vevey ,46.4636235,6.8401817,mm,Vevey
Vevey ,46.464429,6.8421961,m,Vevey
Vezia,46.0212226,8.9366277,pica,Vezia
Villars,46.5663916,6.5589149,mgls,Villars-Sainte-Croix
Villars,46.7937778,7.1335773,m,Villars-sur-Glâne
Villars,46.7988222,7.1228992,mgls,Villars-sur-Glâne
Villars,46.2988399,7.0547167,dmp,Ollon
Vionnaz,46.3135922,6.8985242,dmp,Vionnaz
Visp,46.2929559,7.8798626,mm,Visp
Volketswil,47.3884116,8.6805761,mm,Volketswil
Volketswil,47.3807417,8.6740561,mgls,Schwerzenbach
Volketswil,47.3800454,8.6752451,fm,Greifensee
Vétroz,46.2154523,7.259816,dmp,Ardon
Wabern ,46.922607,7.4597626,mm,Kehrsatz
Wald,47.2737533,8.9118624,shell,Wald (ZH)
Wald,47.2748553,8.9147079,m,Wald (ZH)
Walenstadt,47.1219487,9.3135977,m,Walenstadt
Walke,47.392741,9.2977832,m,Herisau
Wallisellen,47.4134998,8.5916082,m,Wallisellen
Wallisellen,47.4084534,8.5960556,mmm,Wallisellen
Wallisellen,47.4081074,8.6019195,mgls,Wallisellen
Wattwil,47.2984452,9.0881625,mm,Wattwil
Weggis,47.0337353,8.4262019,dmp,Weggis
Luzern,47.042706,8.3160305,m,Luzern
Weinfelden,47.562973,9.1047495,mgls,Weinfelden
Weinfelden,47.5674427,9.1110836,mm,Weinfelden
Weinfelden,47.56718,9.094288,m,Weinfelden
Wettingen,47.4607588,8.3148527,mig,Wettingen
Wettingen,47.467274,8.324826,mm,Wettingen
Wetzikon,47.3276616,8.7996977,mmm,Wetzikon (ZH)
Wetzikon,47.3328932,8.8055078,mig,Wetzikon (ZH)
Widnau ,47.4077549,9.6288579,mm,Widnau
Will,47.4555682,9.0490099,mgls,Rickenbach (TG)
Will,47.4644708,9.040829,soca,Wil (SG)
Will,47.4560847,9.0467972,fm,Wil (SG)
Will,47.4628222,9.0423748,mm,Wil (SG)
Wildegg,47.4164275,8.1663545,m,Holderbank (AG)
Wilderswil,46.6683954,7.8698481,mgls,Wilderswil
Willisau,47.122768,7.9941804,m,Willisau
Windisch,47.474655,8.212573,m,Windisch
Windisch,47.4823667,8.2125241,mgls,Windisch
Winterthur,47.5157999,8.68038,mgls,Neftenbach
Winterthur,47.5068665,8.711992,m,Winterthur
Winterthur,47.4947417,8.7402503,m,Winterthur
Winterthur,47.4976366,8.7618234,fm,Winterthur
Winterthur,47.4982409,8.7616791,fm,Winterthur
Winterthur,47.5042465,8.7721562,m,Wiesendangen
Winterthur,47.499126,8.720857,mmm,Winterthur
Winterthur,47.5003636,8.7317613,m,Winterthur
Winterthur,47.5112274,8.7587494,mm,Wiesendangen
Winterthur,47.5183138,8.7198648,mm,Seuzach
Winterthur,47.5187243,8.7199374,shell,Seuzach
Winterthur,47.485586,8.7623465,mm,Zell (ZH)
Winterthur,47.491878,8.7064972,m,Winterthur
Winterthur,47.5108438,8.6937262,m,Neftenbach
Winterthur,47.4956333,8.7126522,mgls,Winterthur
Winterthur,47.501194,8.7247052,mig,Winterthur
Winterthur,47.4847801,8.7049215,mgls,Winterthur
Winterthur,47.4996785,8.7301673,mig,Winterthur
Winterthur,47.4871078,8.7550989,soca,Winterthur
Wittenbach,47.460354,9.389376,mm,Wittenbach
Wittenbach,47.4542732,9.3998277,mgls,Wittenbach
Wohlen,47.3493209,8.2724163,mm,Wohlen (AG)
Wolhusen,47.0560514,8.0705934,mm,Wolhusen
Wollerau,47.1920378,8.7214742,m,Wollerau
Worb,46.9266974,7.5649883,mm,Worb
Wädenswil,47.2290738,8.6675403,mmm,Wädenswil
Wädenswil,47.2378305,8.6604111,soca,Wädenswil
Wädenswil,47.2208937,8.661054,shell,Wädenswil
Wädenswil,47.2352197,8.6366175,fm,Meilen
Würenlos,47.4387272,8.3478307,shell,Killwangen
Würenlos,47.4382745,8.3470673,shell,Killwangen
Yverdon,46.7647855,6.6494873,shell,Yverdon-les-Bains
Yverdon,46.7812351,6.6357622,mmm,Yverdon-les-Bains
Yverdon,46.7665642,6.6501591,m,Yverdon-les-Bains
Yvonand,46.7996515,6.743063,dmp,Yvonand
Zell,47.1371898,7.9282486,m,Zell (LU)
Zermatt,46.0217113,7.7481512,mm,Zermatt
Zofingen,47.2914999,7.9421429,mm,Zofingen
Zollikofen,46.9933993,7.4570099,m,Zollikofen
Zollikofen,47.0042506,7.4629968,soca,Zollikofen
Zollikon,47.3377789,8.5760777,m,Zollikon
Zollweiden,47.5224322,7.6178528,dmp,Münchenstein
Zuchwil,47.2033261,7.5600061,m,Zuchwil
Zuchwil,47.2054043,7.5507454,shell,Zuchwil
Zug,47.1825071,8.4840329,mgls,Steinhausen
Zug,47.1652634,8.5151671,m,Zug
Zug,47.1732476,8.5170158,mm,Zug
Zug,47.1780404,8.505821,m,Zug
Zumikon,47.3364667,8.6193207,mm,Zumikon
Zuzwil,47.47228,9.1124966,m,Zuzwil (SG)
Zuzwil,47.4688349,9.1074379,mgls,Zuzwil (SG)
Zweisimmen,46.5553701,7.3728404,m,Zweisimmen
Zwingen,47.4391541,7.5379942,mgls,Zwingen
Zürich,47.4202196,8.5082588,mm,Rümlang
Zürich,47.4211165,8.5075744,mig,Rümlang
Zürich,47.4502749,8.5626585,mm,Kloten
Zürich,47.3792702,8.5086822,m,Zürich
Zürich,47.3780898,8.493271,voi,Uitikon
Zürich,47.3915091,8.4874695,m,Oberengstringen
Zürich,47.3882886,8.4875256,mmm,Oberengstringen
Zürich,47.3638859,8.5310653,m,Zürich
Zürich,47.3673493,8.4942763,mgls,Wettswil am Albis
Zürich,47.3471878,8.5285264,spez,Zürich
Zürich,47.3582422,8.5180694,mm,Zürich
Zürich,47.3576581,8.5715375,m,Zollikon
Zürich,47.3754488,8.5365345,mmm,Zürich
Zürich,47.390296,8.4787702,mig,Oberengstringen
Zürich,47.3812756,8.492102,mgls,Oberengstringen
Zürich,47.4211082,8.5026175,shell,Regensdorf
Zürich,47.3785227,8.5357604,m,Zürich
Zürich,47.3813081,8.5100871,shell,Zürich
Zürich,47.37744,8.5394,m,Zürich
Zürich,47.3780852,8.5409704,mig,Zürich
Zürich,47.3898548,8.5073829,spez,Zürich
Zürich,47.3905311,8.4911591,soca,Oberengstringen
Zürich,47.3522083,8.5584899,shell,Zollikon
Zürich,47.403841,8.4973707,m,Oberengstringen
Zürich,47.35856,8.554269,m,Zürich
Zürich,47.3645091,8.5537771,mm,Zürich
Zürich,47.3794486,8.5294249,mig,Zürich
Zürich,47.3362301,8.5189546,m,Adliswil
Zürich,47.385379,8.5310561,mmm,Zürich
Zürich,47.3405316,8.5193259,soca,Adliswil
Zürich,47.410484,8.5429281,mm,Opfikon
Zürich,47.3913363,8.5185536,m,Zürich
Zürich,47.3751082,8.4858095,m,Uitikon
Zürich,47.3803768,8.4942078,shell,Uitikon
Zürich,47.3862231,8.5487676,m,Zürich
Zürich,47.392636,8.5384895,m,Zürich
Zürich,47.3702468,8.5204177,m,Zürich
Zürich,47.4038478,8.5725326,m,Wallisellen
Zürich,47.4193716,8.54861,mm,Opfikon
Zürich,47.3772377,8.54007,m,Zürich
Zürich,47.3581442,8.5225083,spez,Zürich
Zürich,47.3858886,8.5319665,mgls,Zürich
Zürich,47.3654727,8.5478721,m,Zürich
Zürich,47.3682475,8.5340278,m,Zürich
Zürich,47.419783,8.5563319,mgls,Opfikon
Zürich,47.3795452,8.5593819,m,Zürich
Zürich,47.3684974,8.4966028,soca,Wettswil am Albis
Zürich,47.3594773,8.5264079,mig,Zürich
Zürich,47.3749444,8.5230687,m,Zürich
Zürich,47.3699977,8.5085226,mm,Zürich
Zürich,47.3938846,8.5291765,m,Zürich
Zürich,47.3589998,8.5855777,mm,Zollikon
Zürich,47.3445909,8.5301409,mm,Zürich
Zürich,47.3798263,8.5279288,mta,Zürich
Löwenstrasse,47.373207,8.5348286,mta,Zürich
Bottmingen,47.524208,7.570944,mig,Bottmingen
Reichenbach,46.6251025,7.690035,mig,Reichenbach im Kandertal
Zürich ,47.376217,8.544119,mig,Zürich
