GMDNAME,KTNAME,LAT_CNTR,LONG_CNTR,HEIGHT_CNTR,BEVDICHTE_SQKM_ 2019,AUSLAENDER_ANTEIL_2019,ALTERSVERTEILUNG_ANTEIL_0_19_ 2019,ALTERSVERTEILUNG_ANTEIL_20_64_ 2019,ALTERSVERTEILUNG_ANTEIL_65PLUS_ 2019,PRIVATHAUSHALTE_2019,DURCHSCH_HAUSHALTSGROESSE_2019,GESAMTFLAECHE_ SQKM_2016,LANDWIRTSCHAFTSFLAECHE_ANTEIL_2004/09,WALD_GEHOELZE_ANTEIL_2004/09,UNPRODUKTIVE_FLAECHE_ANTEIL_2004/09,BESCHAEFTIGTE_TOTAL_2018,BESCHAEFTIGTE_ERSTERSEKTOR_2018,BESCHAEFTIGTE_ZWEITERRSEKTOR_2018,BESCHAEFTIGTE_DRITTERSEKTOR_2018,ARBEITSSTAETTEN_TOTAL_2018,ARBEITSSTAETTEN_ERSTERSEKTOR_2018,ARBEITSSTAETTEN_ZWEITERSEKTOR_2018,ARBEITSSTAETTEN_DRITTERSEKTOR_2018,NEUWOHNUNGEN_PRO_1000_2018,SOZAILHILFEQUOTE_2019,WAEHLERANTEIL_FDP_2019,WAEHLERANTEIL_CVP_2019,WAEHLERANTEIL_SP_2019,WAEHLERANTEIL_SVP_2019,WAEHLERANTEIL_EVP_CSP_2019,WAEHLERANTEIL_GLP_2019,WAEHLERANTEIL_BDP_2019,WAEHLERANTEIL_PDA_SOL_2019,WAEHLERANTEIL_GPS_2019,WAEHLERANTEIL_KLEINERECHTSPARTEIN_2019,AVG_INCOME_PRO_STEUERPFLPERSON,STEUERBARES_EINKOMMEN_GEMEINDE,ANZAHL_FAHRZEUGE,ANZAHL_HALTESTELLEN_OV,Anzahl Filialen Coop,Anzahl Filialen Migros,Anzahl Filialen Denner,Anzahl Filialen Spar
Aadorf,Thurgau,47.489522055137,8.90893659955656,590.048731760122,453.7111334,15.83950481,20.404554,60.36255112,19.23289488,3908,2.294524053,19.94,53.38685399,27.99799298,0.501756147,3539.0,118.0,1462.0,1959.0,562.0,48.0,103.0,411.0,4.952166573,1.07,11.398277,15.48045063,10.72895958,37.41550696,3.412856196,7.912524851,2.080848244,,9.589131875,1.981444665,68464.601333004,277.3501,6014.00000129457,9,1,1,1,0
Aarau,Aargau,47.3902363879182,8.04522704922001,436.236994015053,1764.424635,20.93877738,17.38391586,64.41464199,18.20144215,10591,2.014068549,12.34,11.40776699,32.2815534,7.1197411,34888.0,29.0,3213.0,31646.0,2648.0,10.0,170.0,2468.0,21.95787098,3.58,16.68070376,5.660683516,26.42811334,16.34767693,3.623115617,10.85312048,2.539039863,,14.6802247,0.629737519,72516.345148722,763.0895,10976.000000247564,51,3,4,2,0
Aarberg,Bern,47.0454176552458,7.27808793740302,500.020013210364,584.110971,12.88860104,19.62435233,59.04576857,21.3298791,2146,2.13000932,7.93,44.20654912,29.72292191,2.644836272,2876.0,119.0,799.0,1958.0,352.0,18.0,60.0,274.0,3.492687186,2.74,9.919585965,0.993349843,14.82512034,33.66815994,3.817579788,9.844458666,12.19009989,0.303291689,10.25626756,1.811402655,64687.799155326,137.8497,2807.999999411443,11,1,0,1,0
Aarburg,Aargau,47.3198496174076,7.90025004437742,445.406222724356,1899.319728,44.13801337,20.47516714,65.22206304,14.30276982,3735,2.213119143,4.41,19.31818182,31.13636364,3.863636364,3466.0,15.0,1095.0,2356.0,409.0,7.0,62.0,340.0,2.602875558,4.92,11.3231082,5.880994179,20.9646124,34.90252241,3.095260094,6.43074933,2.642520558,,10.51926453,1.723182112,60540.820871779,190.2798,4758.00000215955,10,0,1,1,0
Aarwangen,Bern,47.2402442895438,7.77013046084433,485.533291275613,466.6666667,15.90909091,20.54112554,60.12987013,19.32900433,1962,2.298674822,9.9,45.79533941,35.96757852,3.242147923,1593.0,75.0,570.0,948.0,255.0,24.0,46.0,185.0,20.15950377,3.92,11.62244291,1.259359043,13.28905736,38.64540585,2.56257636,9.059866546,8.677673005,0.137840293,9.006610069,2.048807995,65314.566284779,119.7216,2699.0000003537616,4,0,1,1,0
Abtwil,Aargau,47.1741087806665,8.3554181927786,583.696213975549,232.2891566,12.65560166,24.06639004,64.62655602,11.30705394,377,2.541114058,4.15,69.56521739,22.22222222,0.0,174.0,48.0,52.0,74.0,66.0,17.0,13.0,36.0,0.0,,8.388359012,16.58107117,8.094888726,44.31401321,1.076057716,10.29591587,3.81511372,,6.187331866,0.244558572,72298.387096774,26.895,633.9999999266372,4,0,0,0,1
Aclens,Vaud,46.567675747679,6.50995741793213,512.989938273095,138.2051282,24.30426716,22.82003711,63.26530612,13.91465677,217,2.483870968,3.9,68.46153846,13.84615385,0.769230769,1690.0,19.0,432.0,1239.0,103.0,7.0,38.0,58.0,0.0,,23.5034888,0.367242013,21.44693353,22.03452075,0.330517811,9.474843922,0.183621006,4.260007345,16.15864855,0.734484025,90040.254237288,21.2495,558.00000010602,3,0,0,0,0
Acquarossa,Ticino,46.46182933691,8.93053670490431,680.695358432829,29.34606669,12.07942637,16.6574738,57.03254275,26.30998345,840,2.114285714,61.78,21.27246236,56.11138093,19.07074632,838.0,94.0,149.0,595.0,202.0,38.0,37.0,127.0,3.243243243,1.88,15.63470698,27.97680679,13.72955063,9.898529716,,0.641954856,,0.35203976,10.31269414,18.45102506,50628.378378378,41.2115,1171.0000005098354,31,1,0,0,0
Adelboden,Bern,46.4931530523569,7.55847091494726,1407.82319231611,38.26047255,7.846062053,19.86873508,58.20405728,21.92720764,1471,2.243371856,87.61,41.52213601,18.27932451,37.71109083,2493.0,365.0,566.0,1562.0,401.0,120.0,70.0,211.0,13.05250667,0.41,4.190968172,0.369382881,5.238015886,44.75365217,5.27412098,7.401544187,4.843637172,0.163861579,2.813419986,22.23518303,54195.085803432,69.4781,1826.999999771625,59,1,0,0,0
Adligenswil,Luzern,47.0705905579952,8.36418133549715,582.97585131973,781.1158798,10.97069597,21.66666667,55.05494505,23.27838828,2254,2.405944987,6.99,50.85959885,23.63896848,2.005730659,1559.0,64.0,321.0,1174.0,342.0,22.0,42.0,278.0,10.48100318,0.61,16.65956994,16.71811795,16.84585906,23.6321056,0.840962316,10.40025548,,,14.58377688,0.047902917,87829.778581112,194.3673,2749.0000000431214,8,1,2,0,1
Adlikon,Zürich,47.5829213741908,8.69216358170298,494.42811436113,106.0790274,10.6017192,21.2034384,60.0286533,18.76790831,274,2.48540146,6.58,63.89728097,22.65861027,2.567975831,149.0,49.0,24.0,76.0,65.0,22.0,6.0,37.0,21.05263158,,9.361197889,1.325002693,6.097166864,56.45804158,6.711192502,6.409565873,3.910373802,0.0,6.765054401,2.897770117,68920.955882353,18.7465,471.9999999141819,2,0,0,0,0
Adliswil,Zürich,47.3120552618191,8.52575926675803,496.381736093201,2438.095238,37.78505068,20.14358108,61.07474662,18.7816723,8759,2.135631922,7.77,20.95115681,30.97686375,2.05655527,7507.0,17.0,726.0,6764.0,1019.0,4.0,114.0,901.0,0.904111046,3.21,14.42916378,8.977369236,17.61502723,28.52289839,3.063110642,11.17692818,1.989737295,0.227663629,11.06131217,0.763636623,86141.188282542,729.2713,8688.00000233917,29,1,1,3,0
Aedermannsdorf,Solothurn,47.3053546036446,7.60920793075696,586.991391967051,44.81424149,5.008635579,20.37996546,58.5492228,21.07081174,236,2.423728814,12.92,49.38176198,46.67697063,0.309119011,177.0,41.0,42.0,94.0,55.0,19.0,7.0,29.0,5.244755245,1.05,17.4744898,39.66836735,7.653061225,26.2755102,0.191326531,1.849489796,1.785714286,,4.272959184,0.573979592,59182.959641256,13.1978,369.0000000369,3,0,0,0,0
Aefligen,Bern,47.0949434444041,7.55717271633635,543.737818362191,537.254902,8.394160584,19.61678832,60.67518248,19.7080292,492,2.209349594,2.04,69.41747573,3.883495146,4.368932039,255.0,27.0,106.0,122.0,73.0,11.0,17.0,45.0,5.499541705,2.75,4.297458894,0.797209766,11.98305929,45.24165421,6.48978575,6.738913802,11.70901844,0.099651221,5.356253114,3.41305431,60421.881390593,29.5463,691.0000001882976,3,0,0,0,0
Aegerten,Bern,47.1218888220455,7.28839961963638,482.090692254715,1009.259259,17.88990826,19.35779817,57.70642202,22.93577982,1004,2.147410359,2.16,37.5,27.77777778,6.018518519,395.0,7.0,131.0,257.0,,,21.0,64.0,63.35282651,4.03,9.171832777,1.041169925,20.79955492,32.54649499,3.441424257,6.930535686,11.84231442,0.07947862,8.734700366,1.017326339,61708.165829146,49.1197,1232.999999977652,3,0,0,0,0
Aesch (BL),Basel-Landschaft,47.4681683803573,7.59646344673839,365.941994437948,1399.459459,25.29934338,18.26960216,58.50714562,23.22325222,4653,2.203524608,7.4,47.02702703,16.35135135,0.810810811,5724.0,96.0,2504.0,3124.0,637.0,14.0,129.0,494.0,6.837940803,1.17,17.69619149,12.91529016,21.72910304,25.15115627,1.589478277,4.132643521,1.552078788,,15.17172599,,77690.382165605,365.9217,5699.999998720408,14,1,1,1,1
Aesch (LU),Luzern,47.2559132635029,8.24187797727719,527.800026032142,273.1019523,12.70849881,18.50675139,62.98649722,18.50675139,547,2.263254113,4.61,66.23655914,18.92473118,3.440860215,526.0,75.0,252.0,199.0,132.0,27.0,27.0,78.0,4.979253112,1.04,13.81934217,30.21600393,4.590083456,35.56701031,2.307314678,3.362788414,,,9.008345606,0.441826215,70621.676891615,34.534,935.0000000935,4,0,0,0,0
Aesch (ZH),Zürich,47.3362395848504,8.43759636437168,593.491497138515,318.5114504,20.01198322,21.62971839,61.05452367,17.31575794,717,2.308228731,5.24,57.38963532,33.20537428,0.19193858,342.0,40.0,57.0,245.0,85.0,15.0,11.0,59.0,30.41543027,,19.40222898,7.117527862,9.133738602,35.51165147,1.160081054,13.34346505,2.046605876,0.005065856,7.492401216,1.23100304,110664.49912127,62.9681,959.999999909647,2,0,0,0,0
Aeschi (SO),Solothurn,47.1802377040007,7.66290004495945,542.649576411583,229.379562,7.955449483,16.14956245,63.48448687,20.36595068,570,2.189473684,5.48,64.14048059,19.96303142,3.881700555,230.0,50.0,59.0,121.0,70.0,16.0,17.0,37.0,0.819000819,2.72,14.23423423,17.36936937,17.22522523,28.5045045,0.252252252,9.045045045,1.765765766,,9.405405405,1.333333333,70557.980456026,43.3226,872.9999999226771,6,0,0,0,0
Aeschi bei Spiez,Bern,46.6584449024267,7.6960168468794,911.471122516319,72.41045499,5.882352941,20.18716578,58.33333333,21.47950089,1008,2.193452381,30.99,46.36275461,27.44907856,21.07985774,997.0,164.0,150.0,683.0,227.0,65.0,33.0,129.0,2.625820569,0.95,4.538354738,0.629121833,7.119923638,44.16869143,8.512669212,9.250260326,6.803193336,0.255987504,7.779416869,5.978826796,59385.222222222,53.4467,1416.0000001982398,26,0,0,1,0
Aeugst am Albis,Zürich,47.2674419019666,8.4865271589923,747.459219182841,250.4424779,14.18475517,19.78798587,62.19081272,18.02120141,848,2.324292453,7.91,51.13924051,30.88607595,5.316455696,442.0,39.0,25.0,378.0,141.0,15.0,16.0,110.0,13.91035549,1.01,16.42104488,2.49797362,11.56510206,30.3809594,3.227470341,14.31729423,1.263724118,0.162110382,15.05047528,3.820646968,105013.57063404,94.4072,1221.9999998859466,6,0,0,0,0
Affeltrangen,Thurgau,47.5274901329202,9.03084626478548,535.904081000946,180.5959806,16.0399079,22.94704528,61.47352264,15.57943208,1049,2.466158246,14.43,72.36111111,14.79166667,1.736111111,1217.0,169.0,622.0,426.0,230.0,64.0,48.0,118.0,3.903200625,0.39,6.545797033,9.72451142,6.545797033,55.0035319,2.001412762,5.627501766,4.097009654,,6.993171651,3.461266777,63574.407114624,64.3373,1744.0000000226248,1,0,0,0,0
Affoltern am Albis,Zürich,47.2776305225233,8.45368292395686,537.461550521664,1161.756374,28.700317,20.16581322,61.66788588,18.1663009,5412,2.225979305,10.59,40.17094017,28.20512821,0.949667616,6920.0,47.0,1307.0,5566.0,995.0,23.0,134.0,838.0,3.787255063,3.02,13.38543747,4.535341434,14.64525453,30.30691996,6.618555917,12.66662863,2.001445224,0.198718314,12.59056421,1.555517523,71059.805603202,372.8508,6367.999998259002,14,1,3,2,0
Affoltern im Emmental,Bern,47.0649473194199,7.73218929613204,850.759473664686,96.09035621,4.068716094,17.26943942,60.12658228,22.6039783,517,2.112185687,11.51,72.46503497,19.84265734,0.087412587,526.0,158.0,165.0,203.0,129.0,55.0,28.0,46.0,0.0,1.73,4.528877958,0.373165974,7.420914257,55.03350013,5.860402002,3.1379866,8.540412179,0.135696718,4.232041388,5.724705284,50560.169491525,23.8644,990.000000099,8,0,0,0,0
Agarn,Valais,46.2959874957675,7.66445739612502,679.300689426251,94.50980392,10.09681881,15.07607192,65.69847856,19.22544952,304,2.348684211,7.65,17.08278581,32.85151117,45.72930355,196.0,19.0,72.0,105.0,47.0,10.0,12.0,25.0,1.31061599,,0.954575379,65.89861751,7.669519421,20.93482554,0.13166557,0.13166557,,,3.752468729,,54326.229508197,16.5695,501.9999993725,1,0,0,0,0
Agiez,Vaud,46.7178904730647,6.50736764445401,573.107478586026,65.01831502,18.5915493,27.04225352,60.28169014,12.67605634,144,2.465277778,5.46,63.48623853,31.37614679,0.733944954,68.0,27.0,19.0,22.0,,8.0,,12.0,15.92356688,2.45,24.44080742,1.0365521,12.11129296,29.02345881,0.054555374,5.073649755,0.43644299,5.89198036,14.07528642,1.145662848,74703.25203252,9.1885,238.00000012851999,2,0,0,0,0
Agno,Ticino,45.9970931868509,8.89849080850675,332.901674360037,1761.2,32.93209176,18.69180104,59.80013627,21.50806268,2049,2.122986823,2.5,21.9123506,20.71713147,2.788844622,2772.0,8.0,896.0,1868.0,,,69.0,401.0,0.669642857,3.26,15.8232196,18.89168766,12.45706435,15.70872452,,1.774673689,,0.98465766,8.541332723,21.55942294,71290.401301518,131.4595,2800.0,6,1,2,1,0
Aigle,Vaud,46.3177092801858,6.96606095661577,460.050503991544,621.3893967,40.20790429,22.33009709,60.21378837,17.45611454,4464,2.256944444,16.41,33.93939394,37.15151515,3.454545455,6348.0,308.0,1404.0,4636.0,854.0,48.0,157.0,649.0,0.987069391,7.98,32.22498542,1.860550797,18.64542077,16.38881213,1.636425041,5.76586534,0.300881152,4.513217279,14.70326364,1.50440576,60568.21192053,210.3534,5258.000001280208,35,1,1,2,0
Aire-la-Ville,Genève,46.1904268211969,6.0435753429135,427.843229096383,398.9761092,16.42429427,25.91958939,60.39349872,13.68691189,411,2.827250608,2.93,42.01388889,23.26388889,14.58333333,484.0,8.0,183.0,293.0,54.0,4.0,16.0,34.0,5.988023952,10.39,20.71984436,11.35700389,9.192607004,18.45817121,0.072957198,5.471789883,0.972762646,4.377431907,20.69552529,6.420233463,107467.33333333,48.3603,1125.9999997552827,4,0,0,0,0
Airolo,Ticino,46.5285747471517,8.60909671467227,1210.64650150016,15.69687334,23.9027684,16.3403106,56.92099932,26.73869007,722,2.011080332,94.35,29.50211864,23.82415254,43.8559322,891.0,58.0,321.0,512.0,151.0,22.0,26.0,103.0,0.0,0.8,20.86614173,36.43700787,7.086614173,11.53543307,,0.885826772,,0.295275591,3.070866142,17.79527559,57631.707317073,40.1693,934.9999999220834,22,1,0,1,0
Alberswil,Luzern,47.1520958536118,8.00165414795935,568.241809750907,186.1581921,12.8983308,19.57511381,69.34749621,11.07738998,269,2.43866171,3.54,72.19101124,17.97752809,1.404494382,247.0,54.0,48.0,145.0,53.0,11.0,9.0,33.0,9.160305344,1.06,24.60650577,40.39874082,2.465897167,23.39979014,0.577124869,2.203567681,,,5.876180483,0.104931794,55839.568345324,15.5234,436.99999989511997,3,0,0,0,0
Albinen,Valais,46.3401236767283,7.63346821623034,1322.26809888519,15.42416452,10.83333333,10.41666667,52.91666667,36.66666667,122,1.950819672,15.56,46.14395887,39.58868895,10.92544987,91.0,10.0,15.0,66.0,,4.0,,15.0,0.0,,0.36101083,51.98555957,9.145607702,27.31648616,0.36101083,0.962695548,,,9.867629362,,35810.869565217,4.9419,,13,0,0,0,0
Albula/Alvra,Graubünden,46.6787642545384,9.64511682313906,1232.15389934182,13.65910785,14.88698363,15.43257989,60.01558846,24.55183164,579,2.176165803,93.93,28.06214749,46.32329467,22.82643397,714.0,104.0,98.0,512.0,172.0,44.0,27.0,101.0,0.0,,8.44017094,29.11324786,15.27777778,28.04487179,,6.623931624,8.814102564,,3.685897436,,47298.003072197,30.791,863.0000001010942,24,0,0,0,0
Alchenstorf,Bern,47.1236073823643,7.64289594270934,549.680822270922,87.67123288,4.6875,17.36111111,59.54861111,23.09027778,258,2.213178295,6.57,60.2118003,31.92133132,0.302571861,114.0,70.0,8.0,36.0,41.0,21.0,4.0,16.0,5.18134715,,3.558526012,1.427023121,8.99566474,50.59609827,2.908236994,5.148121387,15.20953757,0.939306358,6.177745665,2.474710983,59659.523809524,15.0342,356.0000000901867,4,0,0,0,0
Allaman,Vaud,46.4704228377813,6.3957431359581,454.023002755828,173.4615385,29.93348115,21.95121951,60.53215078,17.51662971,180,2.494444444,2.6,59.45945946,16.98841699,1.158301158,390.0,46.0,31.0,313.0,69.0,16.0,5.0,48.0,0.0,4.3,21.32921175,0.669757857,15.61051005,24.21432251,0.051519835,11.79804225,0.154559505,1.80319423,21.68985059,0.0,102173.44632768,18.0847,261.99999987162,5,1,0,0,0
Alle,Jura,47.4255910196859,7.13114745583412,498.322688754648,179.4339623,11.04100946,23.13354364,55.6256572,21.24079916,788,2.378172589,10.6,64.03755869,22.15962441,0.845070423,1189.0,69.0,720.0,400.0,139.0,17.0,30.0,92.0,4.912663756,2.59,10.61068702,46.10687023,15.41984733,12.13740458,7.480916031,,,,8.244274809,,56213.031161473,39.6864,1167.000000183219,5,1,0,1,0
Allmendingen,Bern,46.9141704907934,7.52527200692896,636.052430431359,155.1181102,7.614213198,18.44331641,52.62267343,28.93401015,249,2.333333333,3.81,65.25198939,21.48541114,3.448275862,215.0,42.0,19.0,154.0,46.0,13.0,4.0,29.0,1.727115717,,12.99169409,1.864911456,10.82902366,33.12960351,2.256699577,10.32753487,12.58423445,0.799247767,9.449929478,2.507443974,106531.07569721,26.7393,393.000000013362,3,1,0,0,0
Allschwil,Basel-Landschaft,47.550978562541,7.53559907231667,336.98081292212,2372.328459,27.46325273,18.6628734,58.85253675,22.48458985,9952,2.088424437,8.89,29.29292929,27.16049383,0.561167228,11081.0,49.0,2429.0,8603.0,1206.0,17.0,203.0,986.0,1.960503036,3.63,16.92984571,9.857160077,25.56653809,20.0186837,3.31485053,6.027000964,1.244575699,,16.95696721,,81075.101461039,799.0762,9404.99999637631,22,3,5,2,0
Alpnach,Obwalden,46.940846078452,8.27394646574859,504.942670761608,112.5511343,15.29819924,20.61787543,63.42309599,15.95902858,2541,2.356552538,53.78,31.76667286,54.18911388,8.768344789,3160.0,189.0,1130.0,1841.0,531.0,74.0,86.0,371.0,2.988047809,1.06,17.0212766,35.03546099,2.789598109,35.88652482,,,,,,,65032.679245283,172.3366,3729.9999987005162,12,1,2,0,1
Alpthal,Schwyz,47.0708177939443,8.71573863070963,1043.35140520893,27.14160839,10.30595813,18.19645733,63.92914654,17.87439614,268,2.294776119,22.88,31.38622493,63.81865737,3.051438535,191.0,55.0,30.0,106.0,57.0,22.0,9.0,26.0,0.0,0.97,10.16791045,12.03358209,4.01119403,69.40298507,0.0,1.585820896,,,2.798507463,,69520.0,19.8132,430.999999971985,12,0,0,0,0
Altbüron,Luzern,47.180503366772,7.88189865894147,615.411311965436,149.9259259,10.96837945,20.75098814,63.53754941,15.71146245,391,2.562659847,6.75,60.86309524,29.01785714,0.446428571,554.0,105.0,313.0,136.0,100.0,32.0,24.0,44.0,1.951219512,1.49,23.62355954,34.31498079,5.057618438,26.4084507,0.640204866,4.641485275,,,4.737516005,0.28809219,64341.486810552,26.8304,735.9999999926401,6,0,0,0,1
Altdorf (UR),Uri,46.8808843630931,8.64300231710238,509.471297440119,934.0842311,16.29443221,19.52395932,59.73576596,20.74027472,4200,2.189285714,10.21,34.24926398,39.45044161,1.766437684,6757.0,95.0,1787.0,4875.0,804.0,38.0,89.0,677.0,12.83295589,1.79,,33.95883777,34.83656174,28.87409201,,,,,,,66257.10538865,277.8823,5733.000000788287,22,1,1,1,2
Altendorf,Schwyz,47.1918293708798,8.83080440884966,471.452827646397,345.8598726,21.41946451,18.31704207,64.98087548,16.70208245,3047,2.281260256,20.41,51.26953125,37.54882813,0.5859375,4444.0,220.0,1039.0,3185.0,768.0,75.0,141.0,552.0,1.443834825,0.96,21.50875617,21.63224068,12.39335429,36.47283341,0.471486304,4.299506062,,,3.22182308,,117470.93672457,378.7263,5180.999999770093,10,0,0,1,1
Altikon,Zürich,47.5729321718137,8.78098327268668,443.242710800841,90.64935065,8.595988539,21.91977077,58.45272206,19.62750716,302,2.304635762,7.7,68.09338521,20.10376135,5.577172503,144.0,66.0,11.0,67.0,61.0,21.0,8.0,32.0,11.83431953,1.27,6.411298517,2.702702703,9.388335704,59.22576712,2.641739484,6.238569397,1.493598862,0.0,5.639097744,3.261532209,71101.607717042,22.1126,468.9999999003375,2,0,0,0,0
Altishofen,Luzern,47.2017584854172,7.96126256003029,545.245545917191,136.801676,15.6202144,24.91066871,62.58295048,12.50638081,726,2.643250689,14.32,66.43405443,25.61060712,0.697836706,2820.0,190.0,278.0,2352.0,183.0,63.0,32.0,88.0,7.150153218,1.38,12.5041848,50.46869769,5.62437228,21.67726816,0.619350519,2.310010044,,,6.076330767,0.451958487,67956.077795786,41.9289,1280.0,5,0,0,0,0
Altnau,Thurgau,47.6096049460395,9.25812137538443,497.574842064641,339.5245171,21.40043764,21.8380744,61.18161926,16.98030635,957,2.377220481,6.73,67.80923994,14.75409836,1.341281669,748.0,106.0,170.0,472.0,173.0,29.0,30.0,114.0,8.605072464,0.71,12.71163666,11.50228433,14.72722386,31.7119054,1.746842247,8.304219296,1.504971782,,15.53345875,2.257457673,75323.701298701,69.5991,1510.9999999855768,9,0,0,0,1
Alto Malcantone,Ticino,46.0483419028739,8.90115286877628,914.477807466872,63.10063463,8.979885058,18.10344828,59.05172414,22.84482759,624,2.224358974,22.06,15.593835,68.31368994,12.60199456,167.0,25.0,25.0,117.0,95.0,12.0,10.0,73.0,0.0,2.63,15.58672901,16.96726787,17.4571365,15.23046092,,1.269205077,,1.113337787,15.5421955,13.87218882,61278.806907378,39.0346,921.00000006447,15,0,0,0,0
Altstätten,St. Gallen,47.3781071353174,9.54029237983821,509.873027154244,300.9883426,28.6267576,20.74597962,60.89921697,18.3548034,5198,2.251827626,39.46,60.69261881,21.05662285,4.676440849,7184.0,339.0,2613.0,4232.0,993.0,111.0,176.0,706.0,1.81833925,1.31,10.28986381,27.56116669,9.229239484,33.7049536,1.533686875,5.511028082,0.286248042,,9.717367723,1.12992648,60429.972287359,283.477,7317.000002571511,42,1,1,1,1
Amden,St. Gallen,47.1488364321726,9.15013678402479,1010.97658065427,42.35594796,10.7515085,17.16950082,56.71969281,26.11080636,847,2.079102716,43.04,36.91914498,47.83921933,12.08178439,538.0,128.0,56.0,354.0,176.0,53.0,18.0,105.0,8.968609866,,8.688500075,23.77747869,4.785404516,38.88141169,2.078660087,6.609839988,0.807537012,,10.21384776,2.646926873,66286.043829296,57.47,893.0000002664117,19,0,0,0,1
Amlikon-Bissegg,Thurgau,47.5702827189177,9.05871409922472,466.853734459728,92.73858921,10.81282625,18.56823266,64.57867263,16.85309471,566,2.349823322,14.46,67.98336798,22.03742204,1.524601525,505.0,148.0,129.0,228.0,136.0,51.0,18.0,67.0,9.737827715,0.45,6.965888689,9.407540395,5.996409336,55.87073609,1.867145422,5.852782765,4.667863555,,5.745062837,3.626570916,66668.070175439,38.0008,1075.00000016125,12,0,0,0,0
Ammerswil,Aargau,47.3694805084486,8.20784071628396,501.906880079769,226.3322884,13.71191136,23.68421053,62.32686981,13.98891967,289,2.484429066,3.19,33.125,57.8125,0.0,153.0,58.0,32.0,63.0,50.0,6.0,11.0,33.0,17.6730486,,10.62980031,3.840245776,17.57296467,41.53609831,1.566820277,9.708141321,2.949308756,,11.0906298,0.061443932,76953.156146179,23.1629,476.99999995707,3,0,0,0,0
Amriswil,Thurgau,47.5450928914979,9.29842851357172,497.553577355109,726.3932702,32.51302837,20.671685,62.41314418,16.91517082,5984,2.278910428,19.02,66.14007372,12.95418641,0.421274355,6048.0,209.0,1884.0,3955.0,974.0,76.0,192.0,706.0,11.14247512,1.78,12.62371496,11.88940681,12.01072728,37.73066854,3.122405977,6.378903008,1.558010344,,10.46548752,4.220675564,60658.083501931,329.798,8586.000002436618,19,1,3,2,1
Amsoldingen,Bern,46.727011327544,7.5812251530263,697.903605106287,168.7898089,3.522012579,19.87421384,57.35849057,22.7672956,351,2.239316239,4.71,60.21276596,21.91489362,10.42553191,124.0,37.0,24.0,63.0,56.0,15.0,9.0,32.0,0.0,1.11,4.569998683,0.487290926,13.51244567,42.40748057,3.002765705,10.61504017,8.31028579,0.013170025,10.79942052,2.686685105,64550.852272727,22.7219,468.0000001647359,5,0,0,0,0
Andeer,Graubünden,46.6027000559085,9.42658572403136,1033.30250289477,19.56803456,13.24503311,19.86754967,52.7593819,27.37306843,412,2.140776699,46.3,31.72309683,44.29588096,21.69506146,465.0,29.0,94.0,342.0,88.0,11.0,19.0,58.0,0.0,1.43,15.94771242,11.69934641,15.55555556,26.40522876,,7.647058824,17.32026144,,5.424836601,,58509.47368421,22.2336,560.000000224,7,0,0,0,0
Andelfingen,Zürich,47.5938552584304,8.67912485528467,449.477822963148,333.3827893,13.35113485,23.40898976,57.23186471,19.35914553,919,2.415669206,6.74,45.97014925,32.98507463,5.223880597,1551.0,56.0,672.0,823.0,195.0,13.0,34.0,148.0,0.0,2.12,15.41652614,2.735244519,10.60033727,31.21753794,5.676222597,14.87352445,3.986509275,0.006745363,11.90893761,2.364249578,83329.591836735,81.663,1230.000000123,2,0,1,0,0
Andermatt,Uri,46.6339715352406,8.59570674072759,1491.37007762305,23.01638291,24.98255408,13.88695045,61.96789951,24.14515003,711,1.94092827,62.26,40.31194726,6.01382859,52.13056762,1348.0,43.0,137.0,1168.0,166.0,18.0,18.0,130.0,96.01181684,,,38.3033419,17.7377892,40.61696658,,,,,,,69995.22431259,48.3667,774.0000001993051,36,1,0,0,0
Andwil (SG),St. Gallen,47.4357155204794,9.2747168156968,752.865126430057,316.7987322,6.203101551,26.31315658,57.32866433,16.35817909,762,2.607611549,6.31,66.08280255,20.38216561,1.592356688,574.0,89.0,303.0,182.0,126.0,28.0,36.0,62.0,1.537672988,0.94,18.39565742,26.69481303,9.095295537,29.34861279,1.170084439,7.249698432,0.325693607,,6.15199035,0.651387214,74719.921363041,57.0113,1231.0000000715154,4,0,0,0,2
Anières,Genève,46.2761727103587,6.22302131909831,454.897117141634,616.7958656,32.00670297,24.17260159,58.77670716,17.05069124,750,2.930666667,3.87,63.87434555,4.97382199,0.0,429.0,50.0,29.0,350.0,115.0,10.0,16.0,89.0,1.221498371,2.37,36.94970526,7.412517246,4.603035244,15.87859024,1.216606045,7.788787157,1.580333626,5.067101468,16.56841841,2.031857519,776209.93150685,679.9599,1392.0000000509074,14,0,0,0,0
Anniviers,Valais,46.1791861000027,7.57591541225222,1627.19727883674,11.16407117,18.73389768,17.85057048,57.63709974,24.51232978,1325,2.043018868,243.37,22.72260344,20.25722151,55.23277314,1515.0,113.0,256.0,1146.0,345.0,46.0,51.0,248.0,3.307607497,0.22,19.3262618,37.3236974,18.73178692,11.24839725,0.652756732,0.652756732,,,10.53735867,,33965.256410256,79.4787,1892.000000090095,66,1,0,0,0
Anwil,Basel-Landschaft,47.4509973363223,7.94116564476025,642.615529274568,140.0,6.329113924,22.06148282,61.30198915,16.63652803,225,2.444444444,3.95,63.45177665,27.15736041,1.269035533,117.0,49.0,4.0,64.0,47.0,15.0,4.0,28.0,3.514938489,,8.967001435,2.43902439,11.11908178,30.12912482,13.98852224,7.173601148,1.147776184,,25.03586801,,70576.923076923,15.5975,336.99999996942927,4,0,0,0,0
Appenzell,Appenzell Innerrhoden,47.3309199540775,9.41006112675208,826.258732599206,342.2985782,19.92038768,18.22429907,60.93804084,20.83766009,2494,2.250200481,16.88,65.87677725,21.56398104,1.007109005,4733.0,177.0,1550.0,3006.0,788.0,83.0,124.0,581.0,6.197280083,2.23,,64.23982869,9.689507495,25.64239829,,,,,,,74836.089672914,203.629,5769.999999693468,9,1,1,1,1
Aranno,Ticino,46.0172446865006,8.87061892992206,782.238421541639,145.1737452,11.17021277,21.27659574,61.17021277,17.55319149,156,2.41025641,2.59,3.921568628,88.23529412,0.0,,17.0,,28.0,,,,14.0,0.0,,15.53191489,15.10638298,16.27659574,7.234042553,,1.382978723,,0.0,24.36170213,15.21276596,78152.777777778,11.254,217.00000004123,6,0,0,0,0
Arbaz,Valais,46.2728089883279,7.38416099469753,1195.98555143736,67.70670827,15.3609831,17.43471582,58.14132104,24.42396313,582,2.195876289,19.23,21.87012987,25.19480519,47.84415584,177.0,21.0,22.0,134.0,92.0,11.0,14.0,67.0,17.47418586,0.7,10.68824066,23.04010939,21.64995442,17.54785779,0.729261623,0.820419325,,,20.05469462,,55522.34548336,35.0346,929.9999998884001,8,0,0,0,0
Arbedo-Castione,Ticino,46.2128458985146,9.04424795172606,311.97892186325,236.4188873,27.56575044,18.82539055,62.50741546,18.66719399,2287,2.176650634,21.39,6.766215586,78.53476435,4.946336911,2771.0,28.0,564.0,2179.0,388.0,8.0,62.0,318.0,16.6699742,2.51,21.64756313,15.92582238,19.60674681,9.5797223,,1.071661541,,0.372751841,11.11732364,16.99748393,64619.890329013,129.6275,3229.0000000113964,13,3,1,2,0
Arboldswil,Basel-Landschaft,47.4166758105933,7.71689667202942,682.883805836551,167.1469741,6.379310345,20.17241379,57.24137931,22.5862069,237,2.41350211,3.47,52.02312139,41.61849711,0.0,86.0,17.0,8.0,61.0,36.0,8.0,5.0,23.0,5.338078292,,11.18170267,3.875476493,13.65946633,41.16899619,10.22871665,3.303684879,0.952986023,,15.56543837,,83072.357723577,20.4358,376.999999985674,3,0,0,0,0
Arbon,Thurgau,47.5123156962656,9.43007001024193,446.476266827434,2466.0,33.04947283,19.05244661,60.62449311,20.32306029,6964,2.088454911,6.0,31.78036606,4.326123128,2.662229617,6541.0,33.0,2172.0,4336.0,835.0,10.0,123.0,702.0,13.55162688,4.03,11.40852391,17.69100832,17.03482328,28.71621622,2.306392931,6.042099792,1.611226611,,13.44204782,1.747661123,60170.859041291,380.34,8430.99999998442,24,2,1,1,2
Arch,Bern,47.1660624746134,7.42939640582191,506.94034513738,255.3291536,7.366482505,20.31921424,58.99324739,20.68753837,733,2.203274216,6.38,51.40625,27.1875,5.3125,585.0,31.0,336.0,218.0,109.0,13.0,30.0,66.0,3.814367451,2.07,6.477093207,0.706254066,7.02536939,45.72995075,2.090883747,8.558684137,15.78849549,1.115137998,7.787380355,1.273115881,60046.798780488,39.3907,1133.9999995010398,3,0,0,0,0
Ardon,Valais,46.2115051452036,7.25723844478844,540.876532317139,161.5007357,31.00516247,23.07925903,62.13179472,14.78894625,1340,2.414179105,20.39,20.30481809,31.51425762,41.54375615,885.0,124.0,152.0,609.0,198.0,27.0,42.0,129.0,34.74657316,1.74,16.92831754,29.14691943,17.65402844,22.89691943,0.784952607,0.666469194,,,9.922985782,,59637.204910293,63.1558,2435.9999996955,2,0,0,0,0
Arisdorf,Basel-Landschaft,47.5109876087744,7.76517779236361,402.895523219369,165.3,10.94978826,20.6291591,58.19721718,21.17362371,672,2.440476191,10.0,56.51302605,33.96793587,0.100200401,509.0,81.0,195.0,233.0,119.0,25.0,22.0,72.0,5.511328843,0.92,15.94245449,5.930710511,11.56782149,41.28009395,4.315913095,4.345273048,2.466236054,,14.00469759,,83939.231824417,61.1917,1109.9999999365714,4,0,0,0,0
Aristau,Aargau,47.2864810134175,8.36395711736466,439.546957843937,172.1064815,17.14862139,19.09885676,67.7202421,13.18090114,629,2.337042925,8.64,68.62068966,15.05747126,7.126436782,355.0,84.0,60.0,211.0,110.0,32.0,22.0,56.0,0.69637883,0.67,7.537766703,13.81404766,10.32549447,42.0339511,2.600840991,8.892695842,3.519700981,,7.802522972,1.354929139,74969.836065574,45.7316,1016.000000004064,3,0,0,0,0
Arlesheim,Basel-Landschaft,47.4942159207826,7.62042709119281,378.931899421848,1321.500722,19.74230181,19.46931644,53.29766325,27.23302031,4207,2.132398384,6.93,9.352517986,52.23021583,0.431654676,6045.0,20.0,1650.0,4375.0,691.0,6.0,80.0,605.0,1.956096501,2.13,23.89803767,8.766393847,20.65378168,13.98284193,2.346908589,5.729218026,0.774085396,,23.75012326,,107917.33610342,467.4979,4746.000000254424,12,1,1,1,0
Arnex-sur-Nyon,Vaud,46.3747871733233,6.19091440381987,504.149004437029,112.745098,23.47826087,26.52173913,62.17391304,11.30434783,86,2.674418605,2.04,75.59808612,15.31100478,0.4784689,23.0,9.0,4.0,10.0,,,,9.0,26.78571429,,30.29787234,7.914893617,6.808510638,15.91489362,2.127659575,15.4893617,1.021276596,1.872340426,15.31914894,0.085106383,152396.25,12.1917,152.9999999980875,2,0,0,0,0
Arnex-sur-Orbe,Vaud,46.6928005233269,6.51956794216235,588.046587109566,82.93963255,11.55063291,21.51898734,58.2278481,20.25316456,269,2.349442379,7.62,73.26343381,19.52817824,0.917431193,179.0,69.0,58.0,52.0,50.0,18.0,12.0,20.0,0.0,1.43,28.44288928,1.674581355,18.29542614,20.16995751,0.624843789,5.798550362,0.699825044,6.798300425,17.12071982,0.099975006,70498.046875,18.0475,370.00000002775,3,0,0,0,0
Arni (AG),Aargau,47.3183997833052,8.42006644508339,617.50064647384,554.3026706,13.59743041,22.10920771,62.36616702,15.52462527,757,2.450462351,3.37,53.46820809,29.19075145,0.578034682,288.0,16.0,91.0,181.0,118.0,6.0,15.0,97.0,0.0,0.65,15.86013113,8.668956187,11.59329795,31.22073057,1.446560516,12.92538245,3.382245811,,11.69736705,0.478717869,96413.49009901,77.9021,1116.0000000874943,2,0,0,0,0
Arni (BE),Bern,46.9346706273251,7.66450537509549,895.094785216264,89.16586769,2.795698925,21.61290323,59.67741935,18.70967742,404,2.28960396,10.43,68.88246628,25.43352601,0.096339114,254.0,133.0,50.0,71.0,89.0,49.0,18.0,22.0,0.0,1.29,3.088049593,0.344392148,4.017908392,61.72655263,3.16840776,6.118700494,9.872574905,0.562507175,6.66972793,1.3201699,54416.622691293,20.6239,535.9999995569066,6,0,0,0,0
Arogno,Ticino,45.9599104832363,8.98780145835812,652.469660083763,116.9811321,11.69354839,17.13709677,59.97983871,22.88306452,435,2.234482759,8.48,10.1754386,82.80701754,0.467836257,242.0,28.0,36.0,178.0,87.0,11.0,16.0,60.0,0.0,1.73,18.04998457,9.225547671,15.82844801,10.45973465,,0.925640235,,2.283245912,19.31502623,21.01203332,60334.09610984,26.366,625.0,7,0,0,0,0
Arosa,Graubünden,46.7780646013372,9.67538210059338,1843.89170330949,20.31784999,25.15103339,13.54531002,63.17965024,23.27503975,1663,1.846061335,154.79,46.08324716,28.53541882,23.26137539,2959.0,122.0,313.0,2524.0,472.0,49.0,53.0,370.0,3.139717425,0.7,17.18213058,8.983799705,9.155621011,37.65341188,,10.01472754,10.45655376,,6.553755523,,56461.907481439,98.8648,1785.9999996467689,61,2,0,1,1
Arth,Schwyz,47.0546682753357,8.53765305097247,515.125766249374,289.2432175,29.07684713,20.00164555,63.38653941,16.61181504,5105,2.348677767,42.02,40.69047619,44.5,5.071428571,4136.0,284.0,1237.0,2615.0,768.0,105.0,140.0,523.0,7.409278437,1.74,22.53131372,19.23973201,17.24439266,33.09787358,0.487911448,5.039324206,,,2.359452374,,67101.897959184,328.7993,6752.9999983194075,32,2,1,1,1
Arzier-Le Muids,Vaud,46.4595489957979,6.20848876022027,914.524122656323,54.08477842,27.8232989,24.11827574,62.7360171,13.14570716,1063,2.616180621,51.9,25.23616734,71.13938693,0.5205321,348.0,22.0,45.0,281.0,150.0,9.0,21.0,120.0,6.40060241,1.07,20.67311353,4.873220133,10.82768598,24.27472779,1.515266885,14.52067311,0.776669459,2.756415137,17.61212214,0.647224549,120947.9145473,118.8918,1843.9999998046007,5,0,0,1,0
Ascona,Ticino,46.1552231786717,8.77067319544296,253.529043479823,1110.505051,27.83336365,14.29870839,54.22957977,31.47171184,2886,1.866597367,4.95,7.085020243,30.76923077,1.214574899,2994.0,16.0,297.0,2681.0,668.0,5.0,68.0,595.0,0.361402241,1.81,28.83886615,16.68940427,8.367439745,12.12672427,,1.402152494,,0.864029104,16.63634986,12.28588752,73457.846251588,231.2453,3533.0000013674317,26,1,2,0,0
Assens,Vaud,46.6126229539067,6.62275942237279,684.922375170514,201.3108614,12.27906977,24.09302326,59.72093023,16.18604651,434,2.470046083,5.34,79.47269303,11.11111111,0.188323917,413.0,42.0,81.0,290.0,99.0,13.0,17.0,69.0,14.03180543,1.21,24.34144715,6.918972991,18.4228076,24.59153051,0.700233411,9.73657886,0.483494498,2.750916972,10.47015672,0.066688896,91663.255813953,39.4152,1381.000000082133,3,0,0,1,0
Astano,Ticino,46.0125247726254,8.81626263458454,685.339960440062,78.47769029,14.3812709,16.05351171,55.85284281,28.09364548,151,1.920529801,3.81,8.59375,82.29166667,0.260416667,49.0,4.0,6.0,39.0,,,6.0,26.0,0.0,2.6,7.897545358,7.790821772,14.83457844,19.10352188,,3.735325507,,1.173959445,24.75987193,12.59338314,59063.57615894,8.9186,204.00000017952001,2,0,2,0,0
Attalens,Fribourg,46.5105671844806,6.848411154568,828.228200019337,365.7084189,17.51824818,25.40707468,61.48231331,13.11061202,1390,2.53381295,9.74,59.53109072,26.91131498,0.305810398,739.0,40.0,208.0,491.0,189.0,18.0,40.0,131.0,3.501604902,1.73,11.13284723,14.61853103,22.08785346,22.07006936,4.677218567,7.327049618,0.373466121,,13.51591677,0.337897919,76365.680933852,98.1299,2177.000000059426,8,0,0,0,0
Attinghausen,Uri,46.8612206537983,8.63075814263838,524.637450433336,37.32139049,6.8,24.85714286,59.14285714,16.0,685,2.521167883,46.89,34.30703625,18.55010661,45.47974414,412.0,104.0,110.0,198.0,101.0,35.0,17.0,49.0,2.92226768,,,47.96610169,11.52542373,38.30508475,,,,,,,62601.650165017,37.9366,941.000000097864,7,0,0,0,0
Attiswil,Bern,47.2504803074657,7.61431749537739,538.841003024951,197.7777778,9.980171844,17.58096497,59.08790482,23.3311302,686,2.183673469,7.65,53.13315927,35.24804178,0.652741514,397.0,72.0,82.0,243.0,98.0,19.0,19.0,60.0,24.81047553,2.26,9.870508533,1.552182489,11.95437784,43.96706972,1.878055055,6.208729955,9.750450219,0.171511877,9.227338993,1.457850956,59807.298136646,38.5159,913.0000002084684,2,0,0,0,0
Au (SG),St. Gallen,47.4347972426052,9.63668095571451,449.658662168309,1679.354839,35.54872583,19.2598284,61.91573825,18.82443335,3528,2.194160998,4.65,36.69527897,4.506437768,6.652360515,4807.0,50.0,2179.0,2578.0,599.0,11.0,111.0,477.0,19.94227237,2.22,14.4793866,19.55217246,11.51794644,34.28158684,1.066785198,7.767529726,0.87787532,,8.912101345,0.938993222,64778.258276171,217.2015,6053.999998132383,9,0,1,1,0
Aubonne,Vaud,46.4946728532802,6.39136766151656,558.106559362262,265.4811715,31.33701077,22.61623325,61.51825584,15.8655109,1572,2.391221374,14.34,57.83972125,27.24738676,0.836236934,3671.0,132.0,939.0,2600.0,424.0,31.0,50.0,343.0,0.0,1.67,28.00699492,2.666812394,17.323351,15.62380458,1.934531942,9.934969124,0.480900596,2.147658342,18.74965845,0.497294934,108565.81875994,136.5758,2380.9999998408,14,0,0,1,0
Auboranges,Fribourg,46.5823047950535,6.80587651420921,694.957260763273,146.1139896,8.865248227,24.11347518,62.41134752,13.47517731,107,2.626168224,1.93,80.82901554,10.88082902,0.0,58.0,17.0,19.0,22.0,,7.0,,14.0,17.54385965,,14.18439716,19.85815603,20.03546099,29.25531915,1.773049645,5.141843972,1.063829787,,7.446808511,0.886524823,108949.19354839,13.5097,200.0,0,0,0,0,0
Auenstein,Aargau,47.4166862574629,8.13961376053541,414.096998899244,282.5704225,12.52336449,18.5046729,61.5576324,19.9376947,712,2.235955056,5.68,29.5971979,44.48336252,5.078809107,306.0,12.0,125.0,169.0,101.0,7.0,18.0,76.0,18.45957989,,17.25925926,4.920634921,14.16931217,32.22222222,6.021164021,11.21693122,3.534391534,,7.851851852,0.169312169,79333.163913596,62.4352,1154.9999995291155,9,0,0,0,0
Augst,Basel-Landschaft,47.5353953560249,7.71751667791302,315.943760093302,631.5151515,23.03262956,13.72360845,60.55662188,25.71976967,526,1.952471483,1.65,35.18518519,6.790123457,17.28395062,784.0,19.0,519.0,246.0,101.0,5.0,23.0,73.0,13.84767557,3.22,16.78004535,7.891156463,19.68253968,26.21315193,2.403628118,6.666666667,1.587301587,,18.7755102,,76071.035940803,35.9816,640.0,2,0,0,0,1
Ausserberg,Valais,46.3143521496232,7.85147812936014,1059.32491181977,42.17188541,7.898894155,16.74565561,57.66192733,25.59241706,269,2.349442379,15.01,20.57256991,45.73901465,30.75898802,140.0,64.0,13.0,63.0,57.0,20.0,8.0,29.0,14.44622793,,0.959147425,59.64476021,7.744227354,26.57193606,0.0,0.923623446,,,4.120781528,,56899.628252788,15.306,325.9999999195867,8,0,0,0,0
Auswil,Bern,47.1347988893385,7.83538586590622,718.541303551756,95.23809524,2.272727273,18.40909091,62.27272727,19.31818182,195,2.220512821,4.62,84.21052632,10.52631579,0.219298246,140.0,69.0,13.0,58.0,48.0,25.0,6.0,17.0,0.0,,4.342173687,0.15600624,5.044201768,51.37805512,2.704108164,2.938117525,11.15444618,0.0,9.204368175,7.826313053,51324.581005587,9.1871,326.99999952258,0,0,0,0,0
Autigny,Fribourg,46.7362270573121,7.02126236263539,732.675983158872,127.9742765,16.08040201,21.85929648,65.57788945,12.56281407,317,2.488958991,6.22,70.16129032,21.61290323,1.451612903,126.0,48.0,18.0,60.0,51.0,20.0,6.0,25.0,6.30517024,0.88,17.04244032,15.1193634,20.0265252,23.20954907,4.177718833,4.774535809,0.596816976,,11.67108753,0.663129974,65119.047619048,19.145,513.0000000109013,3,0,0,0,0
Auw,Aargau,47.2109105988954,8.36528971553958,533.625476376154,250.4672897,19.12313433,27.93843284,60.63432836,11.42723881,812,2.612068966,8.56,66.31578947,23.97660819,0.233918129,657.0,93.0,288.0,276.0,139.0,34.0,25.0,80.0,2.369668246,0.6,7.581181284,25.8501662,6.162106878,38.85195602,3.720276144,5.983124521,3.400664792,,6.583993864,0.255689082,72404.503311258,54.6654,1323.9999995268906,4,0,0,0,0
Avegno Gordevio,Ticino,46.2275104401907,8.74392256226338,388.055670599453,55.34407028,9.523809524,21.2962963,58.5978836,20.10582011,616,2.410714286,27.32,9.194139194,66.41025641,20.6959707,441.0,15.0,110.0,316.0,120.0,6.0,30.0,84.0,8.113590264,1.12,13.84650948,23.25473879,14.93296348,10.07859454,,1.248266297,,1.502542765,20.34211743,10.93388812,58410.934744268,33.119,919.0000001363184,5,0,0,0,0
Avenches,Vaud,46.8802213125135,7.03982034026618,527.295106869191,220.5957884,36.60069849,21.90919674,61.60651921,16.48428405,1834,2.268811341,19.47,64.17910448,16.46937725,0.92640247,2641.0,135.0,775.0,1731.0,338.0,30.0,53.0,255.0,9.980988593,5.29,21.37341988,2.439357704,25.89682269,25.00854117,2.343696618,6.737273659,0.423641954,1.578407926,10.52955244,2.282200205,59178.897208986,86.9338,2700.9999999201445,19,1,1,0,1
Avers,Graubünden,46.4724758523345,9.51297948478421,2006.08873775229,1.836340206,5.263157895,18.71345029,54.38596491,26.9005848,75,2.266666667,93.12,49.36613666,6.027073485,44.13407821,106.0,42.0,11.0,53.0,,13.0,,17.0,0.0,,7.65171504,8.443271768,14.77572559,29.28759894,,9.234828496,29.28759894,,1.319261214,,52998.4375,3.3919,100.0,11,0,0,0,0
Avry,Fribourg,46.7885714568213,7.07062299249917,727.525063537061,330.1886792,20.77922078,23.42857143,61.81818182,14.75324675,749,2.562082777,5.83,72.5388601,11.5716753,0.172711572,1295.0,42.0,206.0,1047.0,200.0,11.0,25.0,164.0,15.42553191,2.24,25.22654911,12.63776635,20.96497673,14.74406074,5.143277002,6.808719079,0.171442567,,12.44183199,0.146950772,87859.238363893,62.2922,1221.0000001077099,15,0,1,1,0
Avully,Genève,46.1701032122486,6.00136156948164,471.833959913813,370.5627706,17.1728972,22.95560748,60.9228972,16.12149533,659,2.57663126,4.62,63.65591398,15.05376344,6.666666667,196.0,31.0,18.0,147.0,84.0,7.0,10.0,67.0,0.0,3.7,11.18581907,4.930725346,18.31703341,15.40342298,0.32599837,6.84596577,0.183374083,8.7000815,26.97636512,5.460472698,78957.044198895,57.1649,982.0000001448451,8,0,0,0,0
Avusy,Genève,46.1441191086728,6.00981368864067,463.783151672222,270.9864603,11.9200571,22.05567452,61.24197002,16.70235546,490,2.844897959,5.17,68.85880077,9.090909091,0.386847195,218.0,62.0,45.0,111.0,78.0,13.0,15.0,50.0,0.0,0.99,18.98545319,17.32562477,9.212980231,11.09660574,0.14919806,7.01230884,0.317045878,3.319656845,25.307721,5.576277508,124449.3220339,73.4251,912.000000058368,12,0,0,0,0
Ayent,Valais,46.2764162315857,7.40750886796761,1016.99126609601,74.24737033,12.5061065,19.58964338,56.17977528,24.23058134,1823,2.208447614,55.14,19.04761905,24.28207924,52.0174482,1100.0,110.0,266.0,724.0,294.0,46.0,49.0,199.0,15.59748428,1.08,14.61097817,23.97215575,28.13429048,14.77775361,1.283445726,0.55108404,,,14.08164745,,45920.242214533,106.1676,2775.999999804839,42,1,0,1,0
Baar,Zug,47.1959866284332,8.5286790419288,493.508134246804,990.6237425,30.29207458,20.13649104,63.09460942,16.76889954,10719,2.272600056,24.85,52.40209931,24.82842148,0.726685507,25596.0,230.0,4488.0,20878.0,3674.0,74.0,436.0,3164.0,2.220212154,2.06,13.27154686,22.69476854,10.04892736,28.19909673,0.677455777,5.372600678,,,19.73560406,,100692.60208753,1099.7646,15535.999998302825,51,2,1,1,0
Bachenbülach,Zürich,47.5034358310968,8.54825566293662,477.537730499171,969.837587,24.784689,21.10047847,58.39712919,20.50239234,1781,2.327905671,4.31,34.03263403,38.92773893,3.03030303,1848.0,6.0,548.0,1294.0,,,49.0,219.0,3.646086534,3.67,20.55477725,3.659288316,13.51358924,31.4289717,4.791258056,11.91089941,1.882880359,0.126085738,9.232277949,2.280750911,78556.584022039,142.5802,2445.000000061125,5,2,0,0,0
Bachs,Zürich,47.5251116715811,8.43981800153122,510.798656896688,64.84118291,13.34459459,17.90540541,60.64189189,21.4527027,244,2.397540984,9.13,48.91067538,44.55337691,0.544662309,268.0,82.0,49.0,137.0,63.0,23.0,7.0,33.0,10.11804384,,3.678133556,1.08320438,9.177478872,54.58873944,1.356981312,7.630044042,1.606951553,0.011903345,14.51017736,6.094512558,73414.007782101,18.8674,400.0,4,0,0,0,0
Bad Ragaz,St. Gallen,47.0035904802236,9.50194450980412,560.276681293733,246.6141732,29.48595147,17.24137931,62.1807152,20.57790549,2941,2.086365182,25.4,43.60990956,33.81832481,11.01061738,3548.0,96.0,826.0,2626.0,480.0,21.0,65.0,394.0,9.285834881,0.95,16.6263255,20.48178884,8.477408944,30.63047487,0.956662056,9.520516367,1.348547718,,9.560857538,1.02581835,62733.406916851,170.5094,3525.999998810563,24,1,1,0,1
Baden,Aargau,47.4731221776841,8.30617918599753,476.895851487294,1484.20653,26.78671919,17.76231647,65.95385481,16.28382872,9317,2.071052914,13.17,8.642911296,55.87566338,1.819560273,29475.0,54.0,7613.0,21808.0,2396.0,8.0,187.0,2201.0,4.589308996,1.6,14.82365525,9.400101023,24.37628136,14.73451722,2.48596076,13.56383769,2.198738202,,15.43276516,0.266423683,80556.87034902,768.5931,9914.000000940609,56,1,8,1,3
Balerna,Ticino,45.8489855579582,9.0065528127432,344.270526905544,1292.490119,26.54434251,16.72782875,58.99082569,24.28134557,1579,2.031665611,2.53,9.881422925,5.533596838,1.581027668,4253.0,4.0,1186.0,3063.0,,,76.0,432.0,11.0612855,4.29,17.52468265,20.2867889,14.48048895,9.191349318,,0.105782793,,0.963798778,14.77433004,18.25340856,63583.637640449,90.5431,2380.0000008131665,15,0,3,0,0
Balgach,St. Gallen,47.4074271341717,9.60904324972988,457.730382971466,750.1533742,24.1054999,19.52565937,64.32222449,16.15211613,2115,2.28321513,6.52,54.17298938,20.63732929,0.91047041,4127.0,86.0,2617.0,1424.0,329.0,20.0,76.0,233.0,8.387096774,0.65,16.61641321,21.77503933,10.62532774,30.5584688,1.015993707,8.304929208,0.445726272,,8.953854221,0.957000524,68811.037107517,144.6408,2776.0000008366733,7,0,0,0,1
Ballaigues,Vaud,46.7296859338016,6.41427302860053,916.474516279064,122.2958057,19.31407942,22.6534296,55.50541516,21.84115523,474,2.270042194,9.06,39.78021978,49.34065934,0.989010989,1068.0,35.0,790.0,243.0,57.0,10.0,17.0,30.0,2.747252747,3.57,19.1107078,2.540834846,20.52631579,29.05626134,2.050816697,6.09800363,0.344827586,2.540834846,14.30127042,1.10707804,62381.704260652,24.8903,739.0000002383275,6,0,0,0,0
Ballens,Vaud,46.5547924616148,6.37455320818363,757.353943182155,64.14201183,21.40221402,24.1697417,59.22509225,16.60516605,216,2.50462963,8.45,63.85255648,29.36979786,1.070154578,304.0,84.0,37.0,183.0,33.0,11.0,5.0,17.0,22.90076336,1.49,27.10340398,1.573538857,17.21258831,30.15414258,1.156069364,8.574181118,0.06422607599999999,2.633269107,7.996146436,0.449582531,72342.288557214,14.5408,332.00000002988,1,0,0,0,0
Ballwil,Luzern,47.1527907332996,8.32076816742713,550.776055189781,309.0079818,7.380073801,23.57933579,59.92619926,16.49446494,1101,2.442325159,8.77,74.62857143,11.77142857,0.342857143,845.0,124.0,278.0,443.0,215.0,40.0,48.0,127.0,2.153625269,0.76,13.15699852,32.27381088,7.957770462,32.47814735,0.34056079,5.868997616,,,6.924736065,0.170280395,71193.617021277,83.6525,1761.99999968284,2,0,0,0,0
Balm bei Günsberg,Solothurn,47.2532495356845,7.55884249020037,696.982512421906,38.20840951,8.612440191,18.18181818,62.20095694,19.61722488,85,2.364705882,5.47,32.3583181,62.34003656,2.193784278,103.0,17.0,13.0,73.0,,9.0,,22.0,0.0,,20.0,16.33333333,13.66666667,24.5,0.166666667,13.0,5.166666667,,4.666666667,0.0,78372.527472527,7.1319,132.0000000132,4,0,0,0,0
Balsthal,Solothurn,47.3159922449999,7.69388861063522,540.837656419724,397.1355824,33.91569162,21.63808303,59.78522199,18.57669498,2651,2.322519804,15.71,29.38931298,54.38931298,1.844783715,2683.0,30.0,938.0,1715.0,377.0,12.0,85.0,280.0,5.086970791,5.34,21.70318313,20.3699876,12.42248863,31.10789582,0.940471269,5.198429103,1.343530385,,5.81852005,0.475403059,63619.533762058,158.2854,3674.0000011362513,13,1,1,1,0
Baltschieder,Valais,46.3089067769597,7.86441782970759,697.311769303866,42.4696873,8.41472577,23.29075883,62.88504884,13.82419234,512,2.583984375,31.34,8.748403576,3.352490422,86.7816092,208.0,36.0,35.0,137.0,77.0,14.0,13.0,50.0,2.265861027,,2.333028362,52.24153705,8.325709058,31.49588289,0.022872827,1.509606587,,,3.774016468,,66457.98816568,33.6942,743.00000010402,8,0,0,0,0
Bannwil,Bern,47.2367399430167,7.73577187619464,470.583743394353,138.2845188,8.472012103,20.42360061,58.698941,20.8774584,294,2.217687075,4.78,46.7230444,39.32346723,5.073995772,238.0,45.0,109.0,84.0,57.0,14.0,14.0,29.0,2.936857562,2.69,7.698334966,0.666013712,16.29774731,44.70127326,1.723800196,3.819784525,11.96865818,0.881488737,6.425073457,1.567091087,59829.194630873,17.8291,2678.999999909993,1,0,0,0,0
Bardonnex,Genève,46.1497895289706,6.10545776266956,518.809456691146,455.4,23.01273606,21.16820378,58.36627141,20.46552481,874,2.574370709,5.0,73.30677291,3.386454183,0.0,627.0,88.0,201.0,338.0,150.0,13.0,29.0,108.0,11.73814898,3.22,19.15875866,16.04257502,9.117722493,12.18261093,0.487304437,4.526801744,0.333418825,4.860220569,26.08361118,4.526801744,104676.87366167,97.7682,1359.9999997582222,8,0,0,0,0
Bäretswil,Zürich,47.33634438904,8.85707333397461,752.229086954147,227.715187,10.15238472,21.51197309,58.18325747,20.30476944,2112,2.367424242,22.19,49.54954955,39.32432432,2.522522523,1647.0,147.0,403.0,1097.0,400.0,62.0,76.0,262.0,1.786423184,1.71,11.27751157,2.866888654,7.663445139,42.66709981,8.173475189,8.087387314,2.449443677,0.042231788,10.03329814,5.352066921,73634.223630602,162.658,3045.999999723091,11,1,0,0,0
Bargen (BE),Bern,47.0381983385003,7.26232068809245,498.040698449127,130.4071247,9.268292683,21.07317073,59.70731707,19.2195122,418,2.389952153,7.86,70.61068702,18.956743,3.307888041,420.0,69.0,180.0,171.0,71.0,23.0,9.0,39.0,1.982160555,,3.455095393,0.697999069,12.78501629,40.30944625,4.769660307,6.235458353,14.00651466,0.116333178,9.806886924,4.234527687,60303.016241299,25.9906,578.9999997495826,3,0,0,0,0
Bargen (SH),Schaffhausen,47.791530843134,8.61169119985385,657.45336026419,37.7267231,23.07692308,11.21794872,71.47435897,17.30769231,147,2.102040816,8.27,27.6904474,67.47279323,0.241837969,89.0,22.0,10.0,57.0,,9.0,,19.0,3.267973856,,3.90625,1.953125,19.140625,58.984375,0.0,6.25,,,5.859375,2.734375,57290.4,7.1613,233.00000019338998,1,0,0,0,0
Bäriswil,Bern,47.0194126279074,7.52675547424079,592.850414616987,383.1501832,6.787762906,19.21606119,58.22179732,22.56214149,462,2.251082251,2.73,45.84837545,41.51624549,0.722021661,170.0,15.0,27.0,128.0,58.0,6.0,14.0,38.0,0.938967136,2.92,6.797524657,1.566428157,13.21794624,35.60239799,2.00154709,11.53548637,13.02456005,0.386772385,9.727325469,2.165925353,77721.94092827,36.8402,609.9999997908571,2,0,0,0,0
Bärschwil,Solothurn,47.3819264515265,7.47305500334245,515.108337156475,71.58176944,9.86267166,16.60424469,58.05243446,25.34332085,361,2.199445983,11.19,41.39784946,53.22580645,0.358422939,113.0,43.0,29.0,41.0,49.0,16.0,14.0,19.0,1.225490196,5.08,13.93389501,22.94232016,6.092028516,30.00648088,1.879455606,6.610499028,1.360985094,,15.35968892,1.425793908,57258.666666667,21.472,489.9999999673333,3,0,0,0,0
Bas-Intyamon,Fribourg,46.5664225296582,7.08387730943467,769.614117847756,46.46070786,19.883796,23.95093609,61.65267915,14.39638476,645,2.375193798,33.34,48.79735418,39.74744438,8.719182201,716.0,43.0,440.0,233.0,83.0,16.0,15.0,52.0,25.23431867,1.58,20.63079777,22.7458256,20.85343228,17.21706865,2.040816327,4.712430427,0.111317254,,9.461966605,0.927643785,56920.849420849,29.485,992.0000001269761,6,0,0,0,0
Basadingen-Schlattingen,Thurgau,47.6686598331183,8.7474550483723,457.555384042673,117.0185541,15.09021323,21.10442865,60.41552761,18.48004374,752,2.418882979,15.63,59.43698017,31.60588612,0.703774792,793.0,373.0,246.0,174.0,140.0,32.0,35.0,73.0,3.291278113,1.31,6.286080821,8.723540731,11.1289288,47.27389352,1.186658114,8.402822322,2.597819115,,12.25144323,2.148813342,67253.909465021,49.0281,1305.00000017748,4,0,0,0,0
Basel,Basel-Stadt,47.559016647842,7.58876001759463,315.968117265031,7263.396226,37.95545858,16.89353006,64.07649857,19.02997137,87344,1.918071075,23.85,3.850983675,3.641691084,5.985768104,185432.0,27.0,34946.0,150459.0,15945.0,11.0,1362.0,14572.0,4.454472839,6.4,20.3418074,4.134477183,34.03162055,11.28458498,1.490298239,5.563690262,0.383129716,,19.40262307,0.194933525,81532.08503949,6431.3324,55275.99998269474,170,26,20,17,6
Basse-Allaine,Jura,47.4801457413759,7.03132830523571,434.251843580045,53.73263889,9.127625202,21.72859451,52.98869144,25.28271405,538,2.286245353,23.04,44.04347826,47.65217391,0.913043478,474.0,149.0,186.0,139.0,96.0,34.0,19.0,43.0,0.825082508,2.11,13.75796178,40.12738854,23.56687898,11.71974522,3.821656051,,,,7.006369427,,55070.84148728,28.1412,781.9999997723512,12,0,0,0,0
Bassersdorf,Zürich,47.4441640217598,8.62922778360442,509.29854189232,1309.413068,24.94925575,20.77976996,62.76217862,16.45805142,4997,2.346007605,9.03,37.59733037,30.92324805,0.778642937,4597.0,34.0,961.0,3602.0,647.0,13.0,96.0,538.0,4.804804805,1.76,13.56838623,4.234968346,17.33092362,32.92431593,3.403193929,12.29166006,2.37800818,0.329750468,8.959277931,3.314414957,79662.447176335,414.7227,6392.000001237778,13,1,1,1,0
Bassins,Vaud,46.464311921224,6.23311789017705,801.464896361344,66.73086182,22.87157287,25.46897547,62.26551227,12.26551227,529,2.61436673,20.77,35.53956835,60.91127098,0.143884892,233.0,50.0,51.0,132.0,81.0,13.0,15.0,53.0,8.8823094,0.82,17.54608133,2.940762628,17.33502181,22.72407486,1.561840439,13.24046715,0.984944421,1.449275362,20.12100746,0.126635711,102894.81765835,53.6082,935.9999998288458,3,0,0,0,0
Bätterkinden,Bern,47.1309403407596,7.53879941697198,522.750867097639,318.842002,7.202216067,20.22160665,59.12588489,20.65250846,1408,2.291193182,10.19,57.94669299,24.28430405,2.171767029,896.0,65.0,333.0,498.0,155.0,18.0,26.0,111.0,0.308071473,2.25,6.088428026,1.40419097,21.44091596,28.15582919,2.992006913,10.51703032,12.9977677,0.396053863,10.96349103,0.802909196,67542.630057804,93.479,1777.9999999736594,7,1,0,0,0
Bättwil,Solothurn,47.4898387168452,7.51027695819284,409.998647167347,698.2035928,14.49399657,21.26929674,60.63464837,18.09605489,471,2.454352442,1.67,57.64705882,17.64705882,0.0,486.0,31.0,194.0,261.0,99.0,7.0,15.0,77.0,5.119453925,2.45,13.12309257,12.81790437,19.32858596,30.21363174,1.983723296,9.104781282,2.644964395,,8.189216684,0.2034588,80912.549800797,40.6181,691.999999618016,3,1,0,0,0
Baulmes,Vaud,46.7899867937544,6.52314660016493,692.230376739986,46.31111111,15.54702495,20.44145873,60.94049904,18.61804223,462,2.253246753,22.5,40.09769094,54.88454707,0.976909414,381.0,40.0,236.0,105.0,79.0,15.0,16.0,48.0,0.946969697,2.92,10.84975981,0.82822594,18.78416432,29.56766606,1.010435647,4.472420076,0.380983932,4.190823257,26.05598807,0.679145271,64052.204176334,27.6065,692.9999995204439,3,0,0,0,0
Bauma,Zürich,47.367573571827,8.87776596493367,686.209347852506,165.0186251,15.53457829,20.27498461,61.64580341,18.07921198,2074,2.317743491,29.53,36.76719756,54.15113521,1.219925449,1937.0,153.0,616.0,1168.0,392.0,63.0,73.0,256.0,1.822231221,2.11,5.346434506,3.122967994,10.87891048,44.14601546,8.686149845,7.596994437,1.556968427,0.301640055,9.498952388,7.342316307,65380.988023952,131.0235,3056.000000529707,21,0,1,1,0
Bavois,Vaud,46.6841758464386,6.56677417971684,508.930496213958,101.7112299,14.72134595,23.02839117,65.50998948,11.46161935,404,2.349009901,9.35,74.7311828,16.23655914,1.290322581,222.0,44.0,29.0,149.0,62.0,16.0,11.0,35.0,7.559395248,2.55,17.49691231,1.482091396,20.79044874,28.11856731,1.296829971,6.792918897,0.638122684,4.672704817,16.75586661,0.144092219,66166.751918159,25.8712,597.0000000761175,1,0,3,0,0
Beatenberg,Bern,46.6986573955133,7.79557616113234,1212.35227201879,41.00102845,17.05685619,16.05351171,54.84949833,29.09698997,601,1.90515807,29.17,32.94520548,53.69863014,9.109589041,549.0,55.0,99.0,395.0,120.0,20.0,20.0,80.0,4.966887417,2.01,4.747631019,0.928253723,8.20924386,46.49004061,5.2310965,5.076387546,5.598530265,0.232063431,10.90698124,6.343067105,53450.539956803,24.7476,578.0000001717486,25,0,0,0,0
Beckenried,Nidwalden,46.9662002094278,8.47408015258604,493.693758004345,152.4536082,12.65891263,19.96213146,60.67081417,19.36705437,1608,2.268656716,24.25,48.74330449,37.33003708,7.911001236,1144.0,142.0,250.0,752.0,279.0,43.0,54.0,182.0,0.0,0.98,,33.51822504,,66.48177496,,,,,,,77441.226993865,126.2292,2279.999999359135,17,0,0,1,0
Bedano,Ticino,46.050820724397,8.91801748514473,417.422108091414,826.2032086,15.40453074,22.26537217,59.15857605,18.57605178,609,2.515599343,1.87,14.81481481,51.32275132,4.232804233,,,869.0,767.0,,,58.0,99.0,0.648508431,1.03,18.31707317,12.14634146,13.56097561,18.85365854,,0.170731707,,0.390243902,9.951219512,22.14634146,74903.927986907,45.7663,1128.00000024816,4,0,0,0,0
Bedigliora,Ticino,46.0023124581432,8.84182540479453,667.144098476507,237.7431907,11.29296236,17.67594108,60.72013093,21.60392799,255,2.333333333,2.57,10.71428571,71.82539683,1.190476191,141.0,12.0,25.0,104.0,41.0,5.0,13.0,23.0,0.0,,10.36157582,16.18996222,16.62169455,14.67889908,,1.942795467,,2.104695089,17.53912574,15.11063141,61108.461538462,15.8882,379.000000350575,6,0,0,0,0
Bedretto,Ticino,46.5061527102064,8.51089110500899,1463.98135719169,1.409761936,12.26415094,6.603773585,63.20754717,30.18867925,58,1.689655172,75.19,24.56466835,15.04718862,59.39120032,,,10.0,49.0,,,,21.0,0.0,,12.98076923,31.97115385,9.375,19.71153846,,0.0,,0.0,1.201923077,24.27884615,107531.25,6.882,,7,0,0,0,0
Beggingen,Schaffhausen,47.7670694261158,8.53777723755103,596.512560608797,36.80445151,8.639308855,18.35853132,56.80345572,24.83801296,208,2.211538462,12.58,50.55379747,44.69936709,0.237341772,117.0,53.0,13.0,51.0,53.0,18.0,6.0,29.0,4.115226337,2.52,5.148514852,0.594059406,14.65346535,64.15841584,1.782178218,1.782178218,,,4.554455446,6.732673267,53170.707070707,10.5278,311.999999915136,2,0,0,0,0
Begnins,Vaud,46.4411046278247,6.25055274285644,588.277667866088,403.131524,28.84515795,23.04505438,59.96892802,16.98601761,830,2.322891566,4.79,68.54166667,17.29166667,0.208333333,502.0,79.0,28.0,395.0,133.0,16.0,14.0,103.0,8.90052356,1.02,23.86137455,1.885025173,19.74007727,19.11954104,0.12879054,10.83011357,0.081957616,1.615735862,20.3957382,0.480037466,111111.78756477,85.7783,1227.9999999351617,7,0,0,0,0
Beinwil (Freiamt),Aargau,47.2308551090906,8.3458267045956,625.648595229723,103.9787798,9.013605442,22.36394558,62.5,15.13605442,482,2.423236515,11.31,75.30864198,17.98941799,0.176366843,401.0,136.0,67.0,198.0,129.0,47.0,16.0,66.0,1.746724891,0.61,12.01293452,23.73484236,5.448666128,39.78981407,1.358124495,5.8043654,3.071948262,,6.596604689,0.921584479,75575.391498881,33.7822,764.9999998574318,3,0,0,0,0
Beinwil (SO),Solothurn,47.3620499269677,7.58688473938487,630.061879093759,12.13592233,7.272727273,22.54545455,55.27272727,22.18181818,103,2.660194175,22.66,43.60670194,54.14462081,0.352733686,129.0,88.0,7.0,34.0,,31.0,,16.0,0.0,2.12,21.53614458,37.19879518,4.668674699,25.45180723,0.15060241,1.957831325,0.15060241,,7.078313253,1.204819277,52781.553398058,5.4365,198.99999992636998,7,0,0,0,0
Beinwil am See,Aargau,47.2660761078862,8.2023878472482,570.86263821274,877.5456919,14.87652484,19.13121095,61.08301101,19.78577804,1489,2.210208193,3.83,48.16753927,19.10994764,0.785340314,960.0,26.0,190.0,744.0,262.0,12.0,47.0,203.0,22.68431002,1.5,14.54271188,5.598078105,14.74384044,32.19174256,4.458349629,8.089837421,3.391250908,,13.20185485,1.150902285,74541.64874552,103.9856,2219.999999556,3,0,0,0,0
Belfaux,Fribourg,46.8210671255234,7.1070928488173,633.439251223579,369.3693694,29.84756098,24.93902439,60.79268293,14.26829268,1265,2.571541502,8.88,57.01459035,30.97643098,0.448933782,764.0,71.0,240.0,453.0,166.0,22.0,44.0,100.0,4.194128221,2.62,11.07644306,21.85820766,27.26642399,14.0232276,5.425550355,6.465591957,0.624024961,,10.36574796,0.572022881,71207.61821366,81.3191,1788.9999998524074,9,0,1,1,0
Bellach,Solothurn,47.2119243121314,7.49142886074352,483.954194549471,998.8657845,28.91748675,18.35730507,58.34595004,23.29674489,2384,2.174496644,5.29,46.9924812,14.84962406,5.263157895,2321.0,41.0,1269.0,1011.0,284.0,17.0,73.0,194.0,1.327769348,4.91,18.71076775,14.70304201,18.50555287,29.03186866,1.086431676,5.902945437,1.955577016,,8.389666828,0.941574119,63319.440914867,149.4972,3195.0000003938667,16,1,0,1,0
Bellevue,Genève,46.2556243139939,6.15474106108654,428.880954766646,775.2293578,36.89349112,27.86982249,58.78698225,13.34319527,1081,2.923219241,4.36,40.1826484,15.52511416,1.369863014,1293.0,7.0,360.0,926.0,153.0,4.0,15.0,134.0,1.204093919,3.42,24.30537523,6.933264087,11.99688393,16.67099455,0.597247468,6.426902103,0.363541937,3.8042067,22.65645287,4.167748637,110345.16129032,109.4624,1801.9999996641727,13,0,0,0,0
Bellikon,Aargau,47.3891776088713,8.3445479702314,643.683516148478,313.7651822,9.935483871,17.5483871,62.4516129,20.0,702,2.200854701,4.94,61.02040816,28.57142857,0.204081633,718.0,23.0,23.0,672.0,80.0,10.0,9.0,61.0,1.937984496,0.9,14.66957153,10.05291005,11.52609192,33.8313103,2.593630045,11.54684096,5.073140367,,7.646021372,0.331984646,92441.910828026,72.5669,1032.0000002181941,3,0,0,0,0
Bellinzona,Ticino,46.1915353252291,9.02418642629997,287.939907816239,263.5428084,25.45576377,19.47826891,59.69869914,20.82303196,19666,2.168361639,164.22,11.81059175,69.11451033,9.622767993,25731.0,366.0,3271.0,22094.0,3538.0,117.0,449.0,2972.0,7.040133392,3.55,24.28668759,16.98117103,18.05784953,9.881080188,,0.707118672,,0.792798745,12.44115947,13.59525972,65687.977200424,495.5501,25919.99999187373,142,6,5,4,0
Bellmund,Bern,47.1056326317692,7.24497108692522,544.159015250392,443.7994723,7.966706302,22.7705113,58.91795482,18.31153389,671,2.499254844,3.79,51.83246073,32.98429319,0.261780105,272.0,30.0,105.0,137.0,69.0,10.0,10.0,49.0,23.07225258,0.47,16.93363844,2.247947234,13.19827702,28.17337461,4.280522278,11.76470588,10.32440436,0.228832952,7.995692556,1.009557141,90841.522988506,63.2257,909.9999998428182,5,1,0,0,0
Bellwald,Valais,46.4234553799016,8.16061175882485,1613.44275496714,26.86246418,12.26666667,13.33333333,60.26666667,26.4,176,2.107954546,13.96,37.00787402,25.76950608,32.14030064,189.0,9.0,22.0,158.0,46.0,4.0,5.0,37.0,7.712082262,,3.143418468,52.5540275,10.70726916,27.11198428,0.294695481,1.964636542,,,4.223968566,,27697.631578947,10.5251,209.9999999958,7,0,0,0,0
Belmont-Broye,Fribourg,46.8666338355782,7.01369000517095,489.321474069729,215.5486623,24.89656413,25.05846375,61.44990106,13.49163519,2220,2.475675676,25.79,65.91789311,23.23780015,0.813323005,2563.0,151.0,1053.0,1359.0,357.0,58.0,80.0,219.0,9.400921659,2.28,17.47763206,14.5115823,23.58132124,20.90942517,3.247947052,4.400049026,0.612820199,,10.43019978,3.162152225,,,3780.9999991911627,7,0,1,1,0
Belmont-sur-Lausanne,Vaud,46.5203532833276,6.67888744263824,669.927404423244,1424.150943,25.17223105,23.84737679,62.16216216,13.99046105,1530,2.464052288,2.65,35.63218391,30.651341,0.0,481.0,6.0,43.0,432.0,,,15.0,149.0,5.471956224,1.8,27.84529219,2.377681496,18.88935855,11.00602346,0.745006869,11.13283314,0.433266406,3.497833668,21.70030646,0.290605516,109046.67553191,164.0062,2228.000000064283,23,0,0,1,0
Belmont-sur-Yverdon,Vaud,46.7457771803238,6.62466732263252,582.819008857943,57.89473684,12.56684492,24.06417112,63.10160428,12.8342246,145,2.565517241,6.46,75.69230769,18.15384615,0.307692308,72.0,36.0,15.0,21.0,34.0,12.0,11.0,11.0,0.0,4.43,23.40733591,1.978764479,14.28571429,33.54247104,3.185328185,3.33011583,0.579150579,4.198841699,13.12741313,0.241312741,73461.870503597,10.2112,273.9999999872133,2,0,0,0,0
Belp,Bern,46.8907988080395,7.50030408960493,570.1379531743,497.5064488,14.63014172,19.23608711,59.49706187,21.26685102,5262,2.168757127,23.26,57.4248927,25.96566524,2.360515022,5046.0,306.0,1173.0,3567.0,755.0,76.0,118.0,561.0,0.524521374,4.3,8.319747459,1.937674583,16.35808559,32.7670533,5.130787842,9.598031173,9.488998037,0.364482196,9.004060186,3.828620679,70522.054556007,364.5285,6080.000000788756,22,1,1,2,0
Belprahon,Bern,47.2856865805765,7.40558026660745,681.267496887594,76.17801047,4.467353952,13.74570447,56.0137457,30.24054983,125,2.32,3.82,40.05235602,52.09424084,0.523560209,109.0,5.0,52.0,52.0,,,7.0,12.0,0.0,,7.857142857,28.53174603,5.674603175,28.76984127,0.198412698,2.182539683,1.388888889,6.825396825,11.9047619,4.206349206,67033.81294964,9.3177,225.000000225,2,0,0,0,0
Benken (SG),St. Gallen,47.1985838457657,9.00521107083023,465.458174005151,180.7272727,11.36820926,24.01073105,60.83165661,15.15761234,1200,2.456666667,16.5,71.70613236,11.71827565,6.13236187,1145.0,213.0,557.0,375.0,240.0,70.0,41.0,129.0,0.663349917,0.93,10.26934329,23.11106628,4.600020176,44.26510643,0.403510542,5.487743367,0.564914758,,7.37415515,2.300010088,65926.556776557,71.9918,1793.0000000989469,8,0,0,0,1
Benken (ZH),Zürich,47.6534864689028,8.65389649676274,471.730502511375,149.2932862,12.78106509,20.35502959,63.43195266,16.21301775,362,2.317679558,5.66,57.49559083,34.03880071,0.352733686,249.0,83.0,42.0,124.0,69.0,19.0,10.0,40.0,0.0,0.94,9.832469087,2.802153969,10.49062625,46.64938173,1.20662146,9.333865178,4.188272836,0.069804547,12.14599122,2.572796171,78465.091863517,29.8952,535.9999998761244,1,0,0,0,0
Bennwil,Basel-Landschaft,47.403014457665,7.78041466351663,568.794271209277,102.143951,6.296851574,24.13793103,58.32083958,17.54122939,263,2.517110266,6.53,53.33333333,40.75757576,0.454545455,195.0,46.0,80.0,69.0,54.0,19.0,10.0,25.0,0.0,,12.92217327,2.202643172,9.618208517,44.12628488,1.248164464,8.663729809,2.129221733,,18.94273128,,71374.903474904,18.4861,449.99999994375,2,0,0,0,0
Bercher,Vaud,46.6914832522246,6.71046552101903,685.770442981273,300.0,17.01795472,25.44886807,59.40671351,15.14441842,508,2.49015748,4.27,56.83962264,26.17924528,0.70754717,460.0,16.0,71.0,373.0,78.0,6.0,12.0,60.0,0.821692687,2.5,27.0315854,2.683226004,17.37197179,19.71787795,0.521312481,7.605029132,0.613308801,2.897884085,16.78932843,0.06133088,78036.384976526,33.2435,798.0000001668545,6,0,0,0,0
Berg (SG),St. Gallen,47.4857284962411,9.40651091258201,557.587478500791,226.3297872,10.45828437,22.44418331,58.28437133,19.27144536,340,2.488235294,3.76,69.57671958,17.1957672,0.793650794,161.0,62.0,12.0,87.0,59.0,20.0,7.0,32.0,1.215066829,,13.19838057,21.48448043,10.44534413,33.76518219,2.321187584,5.695006748,0.269905533,,11.06612686,0.188933873,78585.588235294,26.7191,491.0000000724225,0,0,0,0,0
Berg (TG),Thurgau,47.5786190684491,9.16665399957551,598.727096041664,262.4809741,14.29399826,23.48506814,60.71325022,15.80168165,1386,2.46031746,13.14,69.90144049,17.13419257,0.682335102,1729.0,180.0,392.0,1157.0,253.0,44.0,53.0,156.0,5.108173077,0.88,9.591866804,13.2164432,7.072344187,44.49683218,3.38883159,7.823780757,1.532341241,,7.396493296,5.481066745,70534.318181818,93.1053,2295.0000003475284,3,0,0,1,0
Berg am Irchel,Zürich,47.5695148120831,8.59748258073415,458.58629150223,82.31098431,8.838821491,14.21143847,61.69844021,24.09012132,257,2.225680934,7.01,48.07965861,45.3769559,1.564722617,137.0,46.0,22.0,69.0,47.0,16.0,9.0,22.0,1.773049645,1.23,7.333184057,1.074787282,6.168831169,52.70935961,2.23914017,15.14778325,3.504254366,0.459023735,8.083296014,2.854903717,76676.632302406,22.3129,425.00000008500007,2,0,0,0,0
Bergdietikon,Aargau,47.3879382513169,8.38691028565523,549.601571276784,476.5993266,17.7675733,20.52278347,58.70717061,20.77004592,1229,2.283970708,5.94,54.12541254,27.06270627,1.485148515,1037.0,47.0,481.0,509.0,187.0,21.0,36.0,130.0,1.768659356,0.53,15.68281262,5.811007907,11.02325938,39.66377524,2.533200276,11.87533584,3.776771321,,7.492131726,0.80601827,97958.751902587,128.7178,1773.999999683276,8,0,1,0,0
Bergün Filisur,Graubünden,46.6281640294347,9.74624817982367,1415.77964550443,4.722835805,17.59465479,15.92427617,59.46547884,24.61024499,404,2.143564356,190.14,19.82441384,27.54179371,51.65597729,571.0,127.0,104.0,340.0,112.0,21.0,20.0,71.0,2.188183807,,17.97752809,9.488139825,17.60299625,28.46441948,,9.987515606,10.98626717,,5.493133583,,,,510.00000010200006,19,0,0,0,0
Berikon,Aargau,47.3502514673384,8.37565184574808,598.580368270166,884.0148699,18.18755257,20.68965517,59.50378469,19.80656013,2103,2.244412744,5.38,45.45454545,32.28200371,0.185528757,1510.0,36.0,169.0,1305.0,347.0,12.0,31.0,304.0,4.878048781,1.17,14.08743314,13.11497149,13.2696813,32.55536401,2.051010034,10.40975998,3.275427662,,8.601865358,1.096229501,80831.568907964,169.5038,2743.0000006753457,7,1,0,1,0
Beringen,Schaffhausen,47.6983573015874,8.57498777346694,505.108517111279,263.6509636,22.9035533,20.04060914,60.79187817,19.16751269,2144,2.266324627,18.68,29.54423592,59.35656836,0.053619303,2325.0,70.0,1414.0,841.0,269.0,21.0,63.0,185.0,5.815205686,1.39,12.8357365,2.855527283,20.92168504,42.46536613,1.696352841,7.152954481,,,6.644048629,4.240882104,65450.098328417,133.1255,3213.000000205632,17,1,1,0,0
Berken,Bern,47.2251119305386,7.70930019087507,475.612894437276,29.49640288,2.43902439,2.43902439,65.85365854,31.70731707,21,1.952380952,1.39,52.85714286,30.0,5.714285714,46.0,15.0,8.0,23.0,,5.0,,,0.0,,2.529761905,0.0,3.869047619,78.27380952,0.0,4.315476191,7.291666667,0.0,0.595238095,0.0,54758.333333333,1.3142,,0,0,0,0,0
Berlingen,Thurgau,47.6715758388692,9.01919526864963,460.013857785612,248.603352,24.94382022,14.49438202,55.61797753,29.88764045,435,1.990804598,3.58,26.8907563,58.82352941,0.280112045,322.0,16.0,25.0,281.0,68.0,4.0,11.0,53.0,3.322259136,,10.39173014,9.031556039,14.41784548,32.4265506,5.821545158,6.583242655,1.904243743,,17.62785637,1.795429815,70784.187082405,31.7821,601.0000000364894,3,0,0,0,0
Bern,Bern,46.9483843362966,7.43994609509997,589.993657530285,2607.342115,24.86273228,16.71359898,66.06756767,17.21883335,65169,1.986542681,51.62,18.98856811,33.61751599,2.363882968,188252.0,315.0,15242.0,172695.0,14615.0,51.0,1065.0,13499.0,1.136040898,5.01,7.617384007,2.030645928,28.7109273,9.477289561,2.46229198,13.48951711,4.21567746,1.217531286,25.24440106,0.776123748,71423.68722626,4549.7603,51135.000005656024,204,22,21,16,3
Berneck,St. Gallen,47.4253586766806,9.61242616625037,462.691020599566,700.3558719,20.12195122,21.08739837,59.80691057,19.10569106,1681,2.320047591,5.62,46.07142857,29.64285714,1.071428571,2119.0,70.0,891.0,1158.0,311.0,26.0,73.0,212.0,1.011122346,1.26,16.77320936,18.64739213,9.843091675,33.54641871,0.937091385,8.361179718,0.508499201,,8.869678919,1.576347523,70071.040189125,118.5602,2529.0000003640585,6,0,0,0,0
Bernex,Genève,46.1755011094247,6.07374547123486,505.806915103458,791.042471,21.79812573,22.04217103,58.63920344,19.31862554,3812,2.60703043,12.95,58.98226677,16.4996145,3.3153431,2674.0,249.0,376.0,2049.0,516.0,34.0,69.0,413.0,4.696712301,2.65,16.31848018,14.77846503,14.63645544,12.78086342,0.612219137,5.036606917,0.375536481,4.490658925,23.95544055,5.150214592,97628.644191123,402.5229,5351.9999992864,26,1,0,0,0
Berolle,Vaud,46.558029704023,6.33666794300825,809.522738714702,31.21748179,12.33333333,25.66666667,62.0,12.33333333,107,2.803738318,9.61,35.92938733,61.16303219,0.31152648,38.0,22.0,6.0,10.0,22.0,11.0,4.0,7.0,0.0,2.3,17.48427673,0.943396226,24.08805031,30.75471698,0.062893082,4.905660377,0.377358491,0.754716981,13.33333333,1.257861635,73518.032786885,8.9692,196.99999997980748,3,0,0,0,0
Beromünster,Luzern,47.2058845328322,8.19096899887974,689.933683325537,157.2276288,12.27355072,23.79227053,60.59782609,15.60990338,2603,2.502497119,42.13,68.94262684,21.50308203,0.545282124,2846.0,462.0,879.0,1505.0,561.0,155.0,104.0,302.0,4.322321704,1.19,14.71055291,40.43116308,6.390452818,24.84481016,0.745873635,5.288484674,,,7.261440739,0.134738463,64247.480314961,163.1886,3929.999999725642,19,1,1,0,0
Besenbüren,Aargau,47.3127205653996,8.34457286918222,500.589396917261,265.1260504,7.923930269,26.30744849,61.48969889,12.20285261,243,2.596707819,2.38,67.52136752,20.08547009,0.427350427,141.0,33.0,33.0,75.0,48.0,15.0,12.0,21.0,1.602564103,1.12,7.646129542,10.17377567,14.7235387,39.77883096,3.949447077,8.909952607,5.086887836,,6.793048973,1.548183254,72543.621399177,17.6281,431.99999996544,2,0,0,0,0
Bettenhausen,Bern,47.1729305209997,7.71431323174687,530.600940667093,163.4517766,4.192546584,17.08074534,58.22981366,24.68944099,296,2.14527027,3.94,66.41414141,22.97979798,0.757575758,116.0,38.0,36.0,42.0,37.0,13.0,8.0,16.0,0.0,2.69,3.805073431,0.417222964,18.95861148,41.33845127,1.802403204,5.040053405,12.0493992,0.417222964,9.913217624,2.20293725,57610.666666667,17.2832,416.0000006656,4,0,0,0,0
Bettens,Vaud,46.6275772664563,6.57682958219057,633.947122232988,173.7967914,16.76923077,24.92307692,68.61538462,6.461538462,263,2.467680608,3.74,72.87234043,14.62765957,0.265957447,76.0,21.0,4.0,51.0,31.0,8.0,4.0,19.0,21.01576182,,20.5510907,4.822043628,15.46115576,25.52621508,0.535782625,8.419441255,2.334481439,1.530807501,16.83888251,0.0,81679.72972973,18.1329,418.999999976955,2,0,0,0,0
Bettingen,Basel-Stadt,47.5705835376578,7.66587177459685,438.026489528827,521.5246637,24.84952709,20.55030095,55.11607911,24.33361995,468,2.314102564,2.23,34.54545455,45.90909091,0.0,488.0,9.0,13.0,466.0,,,5.0,46.0,0.868809731,1.88,35.97254005,10.20594966,15.37757437,17.39130435,7.368421053,5.125858124,0.183066362,,5.720823799,2.013729977,180974.75149105,91.0303,545.99999995086,7,0,0,0,0
Bettlach,Solothurn,47.2029402813709,7.42411016142743,530.067345522344,407.7932732,18.16535908,17.94407564,60.671897,21.38402736,2307,2.127438232,12.19,46.46962233,37.60262726,2.463054187,2106.0,52.0,1281.0,773.0,242.0,19.0,50.0,173.0,1.214574899,2.46,19.48916596,16.75341968,18.07287253,28.58007505,1.355768067,5.883065004,1.948916596,,5.846749788,0.738409394,73100.990916598,177.0506,3200.99999908006,22,1,1,0,0
Bettmeralp,Valais,46.3763153282041,8.07030275442395,1226.43909779936,15.63042723,12.66666667,15.55555556,62.22222222,22.22222222,226,1.986725664,28.79,17.19346995,15.42202154,65.92566863,617.0,21.0,29.0,567.0,90.0,9.0,8.0,73.0,0.0,,0.953895072,54.29252782,2.384737679,30.52464229,0.158982512,2.464228935,,,9.220985692,,33121.518987342,13.083,193.00000000965002,9,1,0,0,0
Bettwiesen,Thurgau,47.4969720284307,9.02595007379463,595.930866410024,318.4415584,22.92006525,19.08646003,66.88417618,14.02936378,514,2.356031128,3.85,62.62886598,22.68041237,0.515463918,298.0,35.0,148.0,115.0,80.0,13.0,17.0,50.0,0.801282051,0.56,9.538092382,15.71685663,7.078584283,48.71025795,1.979604079,7.198560288,3.599280144,,5.638872226,0.539892022,70214.629258517,35.0371,856.9999998339563,2,0,1,0,0
Bettwil,Aargau,47.2908123769545,8.26752184143149,740.771548260003,149.6470588,10.22012579,21.06918239,63.52201258,15.40880503,281,2.24911032,4.25,68.69158879,21.4953271,0.23364486,218.0,49.0,90.0,79.0,48.0,15.0,6.0,27.0,16.12903226,1.6,10.82214765,18.12080537,9.08836689,43.20469799,3.131991052,6.767337808,3.579418345,,3.020134228,0.195749441,77885.328185328,20.1723,478.00000003596386,2,0,0,0,0
Beurnevésin,Jura,47.4930631482718,7.1373908915367,477.209041024558,22.98624754,7.692307692,5.982905983,58.11965812,35.8974359,61,1.918032787,5.09,55.68627451,38.43137255,0.784313726,,25.0,,17.0,,8.0,,7.0,0.0,,12.19512195,30.48780488,21.95121951,19.51219512,10.97560976,,,,4.878048781,,47223.880597015,3.164,94.99999999525,2,0,0,0,0
Bever,Graubünden,46.5531772946531,9.88915952006115,1760.36274843756,13.26775956,16.14497529,14.49752883,63.42668863,22.07578254,311,1.932475884,45.75,15.2869032,15.13359615,68.37494525,305.0,16.0,100.0,189.0,67.0,7.0,9.0,51.0,0.0,,18.17288802,5.500982318,29.17485265,28.68369352,,6.385068762,6.777996071,,5.304518664,,73335.67251462,25.0808,380.99999990475004,3,0,0,0,0
Bex,Vaud,46.2504339896588,7.01462499973163,476.397046075203,81.58848504,32.18682574,23.48013707,58.25612387,18.26373905,3424,2.238025701,96.57,26.74117769,33.59205216,35.03052882,2649.0,151.0,822.0,1676.0,549.0,50.0,113.0,386.0,17.68426488,9.1,19.82051111,2.091812905,24.35110429,23.16340829,0.770667912,6.899312738,0.423700541,4.320411023,15.12310669,0.573830653,59800.782166602,152.9106,3913.999999756832,47,1,1,1,0
Biasca,Ticino,46.360524740242,8.97063934306586,353.44665890839,103.2542373,34.02823375,18.89363099,57.14051215,23.96585686,2680,2.246268657,59.0,10.45231238,46.62036253,37.42165001,3064.0,60.0,766.0,2238.0,522.0,30.0,96.0,396.0,12.07966046,3.37,21.78919398,17.3282873,19.01119253,10.01690957,,0.201304453,,0.620017715,8.519204445,19.36548836,57956.701030928,129.3014,3908.9999995098715,15,1,2,1,0
Biberist,Solothurn,47.1821918080356,7.55868392911696,505.773049434647,715.5918367,25.3479352,19.6440794,60.32397901,20.03194159,3891,2.203546646,12.25,36.97617091,34.18241578,2.136400986,3378.0,66.0,769.0,2543.0,487.0,19.0,93.0,375.0,5.795387345,3.92,14.6282623,10.50515389,25.57935522,23.6128372,1.184297098,6.718327363,2.909569413,,12.66905476,0.467870458,63276.292760541,238.6149,4632.999998901463,13,1,2,1,1
Biberstein,Aargau,47.4134273504766,8.08126773340102,422.221528277732,389.7560976,9.824780976,17.39674593,57.1339174,25.46933667,698,2.259312321,4.1,30.97560976,50.97560976,4.634146342,288.0,18.0,10.0,260.0,88.0,4.0,8.0,76.0,16.38311279,1.97,20.10899686,5.274339553,18.81581378,22.34435618,3.58396453,8.710511731,3.380750046,,12.59929799,0.09237022,93615.978695073,70.3056,934.9999999220834,4,1,0,0,0
Bichelsee-Balterswil,Thurgau,47.4531610780321,8.93843556274879,619.064369439147,234.7471452,11.15357887,22.37665045,60.80611536,16.81723419,1199,2.380316931,12.26,50.24752475,37.95379538,1.897689769,901.0,85.0,354.0,462.0,218.0,36.0,47.0,135.0,10.9193378,0.7,11.54145582,19.96885948,7.318022577,37.48540288,1.693265862,7.181782795,2.549630206,,10.06228104,2.199299338,66024.101307189,80.8135,2010.000000134,10,0,0,0,0
Biel-Benken,Basel-Landschaft,47.5069152825454,7.52755530362994,372.973045146093,843.6893204,14.64326812,22.38204833,54.28653625,23.33141542,1432,2.419692737,4.12,54.36893204,20.14563107,0.242718447,1063.0,66.0,365.0,632.0,248.0,13.0,45.0,190.0,2.334403268,1.0,19.73684211,14.10818713,14.49805068,25.73099415,2.400097466,7.041910331,0.743177388,,15.7285575,,124979.19463087,186.219,2093.99999967892,8,0,0,0,0
Biel/Bienne,Bern,47.141616382142,7.24747675854432,485.265955289826,2623.973572,33.97359807,19.41476925,62.36646164,18.21876911,26161,2.089293223,21.19,7.877358491,45.37735849,1.226415094,41468.0,38.0,9739.0,31691.0,4437.0,10.0,517.0,3910.0,10.54172767,10.7,7.910076836,2.435799026,26.35146946,15.43749383,3.212518715,8.931896427,3.891958443,1.941039224,24.14329034,1.577379369,60104.125132068,1308.4067,21289.00000820635,126,2,7,6,0
Bière,Vaud,46.5373038673222,6.33317937163292,746.450430629775,63.56743815,29.88072819,22.03389831,59.63590709,18.3301946,690,2.307246377,25.06,38.31402317,51.41829804,3.515781063,500.0,72.0,155.0,273.0,110.0,22.0,28.0,60.0,0.0,4.84,23.43987823,0.700152207,20.4718417,32.07001522,0.426179604,4.794520548,0.502283105,2.130898021,12.08523592,0.182648402,61651.596638656,36.6827,967.9999998229943,2,0,1,0,0
Biezwil,Solothurn,47.1138908528497,7.41754788749848,635.892076088116,78.79518072,6.116207951,20.48929664,57.49235474,22.01834862,138,2.34057971,4.15,51.80722892,41.44578313,0.0,82.0,30.0,26.0,26.0,,8.0,,13.0,0.0,,21.95121951,6.554878049,10.67073171,34.90853659,0.0,6.097560976,4.878048781,,12.95731707,1.676829268,67462.337662338,10.3892,252.00000004788,1,0,0,0,0
Biglen,Bern,46.9266412927305,7.62770720478393,780.087583793327,505.5710306,7.933884298,18.2369146,61.7630854,20.0,818,2.171149144,3.59,73.46368715,5.30726257,0.0,760.0,50.0,305.0,405.0,135.0,19.0,28.0,88.0,1.102535832,4.52,5.975694226,0.566714942,12.14029343,36.99389207,4.495938543,7.965493357,16.47881116,0.472262452,6.92021913,3.960707764,61437.921727395,45.5255,1202.00000058898,5,1,0,0,0
Billens-Hennens,Fribourg,46.6907333227818,6.89872917570613,786.75014851056,160.7361963,17.30279898,20.3562341,63.99491094,15.64885496,303,2.518151815,4.89,80.20408163,13.26530612,0.0,335.0,40.0,22.0,273.0,43.0,15.0,7.0,21.0,23.77807133,0.78,18.63636364,16.1038961,16.75324675,24.28571429,1.948051948,1.753246753,1.233766234,,13.11688312,0.194805195,60928.044280443,16.5115,503.00000014587,4,0,0,0,0
Binn,Valais,46.3639355311208,8.1832112640718,1450.47182052303,2.058687971,4.47761194,18.65671642,47.76119403,33.58208955,56,2.232142857,65.09,22.35366416,18.8354586,58.38070364,72.0,14.0,8.0,50.0,29.0,6.0,4.0,19.0,0.0,,0.488997555,73.10513447,3.422982885,17.11491443,0.0,0.0,,,5.86797066,,48618.181818182,3.2088,,5,0,0,0,0
Binningen,Basel-Landschaft,47.5374526550614,7.57143386086154,345.955014603212,3541.03139,27.2652441,18.88178307,57.39884759,23.71936934,7334,2.114944096,4.46,20.98214286,7.142857143,0.446428571,5964.0,13.0,466.0,5485.0,950.0,5.0,84.0,861.0,6.48267009,3.75,22.76182698,8.663692907,20.82993026,19.33781491,2.154928693,6.863730603,1.036627505,,18.24778539,,112641.04030501,827.2358,6794.999998840073,16,1,5,1,0
Bioggio,Ticino,46.0131646538519,8.90795911907627,350.048778499477,414.6645866,20.31602709,17.26862302,63.54401806,19.18735892,1199,2.195162636,6.41,17.36434109,54.10852713,1.860465116,,,1566.0,3758.0,,,74.0,273.0,14.35587458,1.22,20.55081784,16.90199916,9.939885363,14.58129456,,0.908709632,,0.559205928,10.47113099,22.46609814,79040.242844753,91.1334,2155.999999878986,22,1,1,0,0
Bioley-Magnoux,Vaud,46.7265724314684,6.71129916464469,623.722086472437,53.37995338,1.310043668,19.65065502,53.71179039,26.63755459,93,2.462365591,4.29,66.35730858,25.98607889,0.928074246,42.0,17.0,10.0,15.0,18.0,6.0,6.0,6.0,0.0,,15.73976915,1.573976915,8.814270724,49.21301154,0.314795383,6.925498426,0.157397692,0.052465897,14.8478489,0.0,62669.565217391,5.7656,142.00000002271997,2,0,0,0,0
Birmensdorf (ZH),Zürich,47.3551261393435,8.43795014971903,513.493207193911,588.7915937,24.9256395,20.88042832,59.96430696,19.15526472,2977,2.229425596,11.42,36.86514886,37.30297723,1.22591944,2598.0,49.0,462.0,2087.0,417.0,16.0,75.0,326.0,5.768631119,2.02,14.44985712,6.714837793,13.85314716,32.68430638,1.861202008,14.37730429,1.590239424,0.20285177,11.80834209,1.461421147,86277.041339255,252.5329,3559.9999991623527,13,1,2,1,0
Birmenstorf (AG),Aargau,47.4618532798985,8.24763805737768,432.964872643352,383.0769231,19.87951807,21.8206158,62.24899598,15.93038822,1224,2.41748366,7.8,44.20103093,36.34020619,4.12371134,1070.0,102.0,302.0,666.0,175.0,17.0,30.0,128.0,5.047106326,1.2,12.33816222,23.66855623,9.82574008,28.81937154,2.673385121,7.019385541,3.933095388,,8.51004269,0.475890545,80420.349278664,105.9136,1774.999999892888,5,0,0,0,0
Birr,Aargau,47.4369862636676,8.20086162987108,454.008720045909,907.3267327,44.30379747,24.02880838,60.65037102,15.3208206,1770,2.570621469,5.05,35.24752475,34.85148515,0.0,2147.0,37.0,1197.0,913.0,171.0,8.0,36.0,127.0,6.717420511,3.17,15.18181014,5.653366363,16.78315491,37.74219234,5.989560294,5.706449615,2.901884456,,5.441033354,1.052817836,65826.105919003,105.6509,2500.999998523094,5,0,0,0,0
Birrhard,Aargau,47.4375891523346,8.24461806556677,445.918287320063,252.3333333,15.45574637,19.41875826,64.2007926,16.38044914,326,2.312883436,3.0,52.66666667,33.33333333,1.666666667,300.0,37.0,136.0,127.0,57.0,10.0,12.0,35.0,0.0,,14.75228342,4.73290894,8.524771658,46.96927761,3.155272627,8.939939109,4.040963189,,6.974813175,0.470523111,68402.906976744,23.5306,559.9999999104001,3,0,0,0,0
Birrwil,Aargau,47.2904037240311,8.19612559021707,602.882640064694,336.9501466,15.23063534,12.88076588,60.48738033,26.63185379,561,2.033868093,3.41,58.26086957,28.4057971,0.0,252.0,24.0,23.0,205.0,87.0,11.0,13.0,63.0,5.119453925,1.54,16.57548425,6.993937602,12.49445512,35.47242348,3.578293657,5.308295135,2.957267485,,9.285819902,2.277095963,71813.953488372,43.232,906.0000000056624,2,0,0,0,0
Birsfelden,Basel-Landschaft,47.5526714154982,7.62328325219555,306.959851203486,4139.68254,30.72277607,16.17139571,59.43251534,24.39608896,5188,1.964148034,2.52,0.0,1.550387597,18.99224806,4263.0,9.0,1552.0,2702.0,,,89.0,453.0,0.0,3.31,10.3826617,8.520149001,33.26786319,21.92346766,5.364036573,2.980020318,1.124280393,,16.01083644,,64693.955482949,316.8063,4126.000001213732,8,1,7,2,0
Birwinken,Thurgau,47.5817559664192,9.1973358699031,596.68323394563,109.0317331,12.6119403,21.86567164,61.49253731,16.64179104,538,2.462825279,12.29,76.18270799,15.49755302,0.326264274,333.0,145.0,74.0,114.0,114.0,45.0,22.0,47.0,2.958579882,0.68,3.392922291,9.81393652,7.916818679,50.78438526,3.648303539,6.931776724,3.903684787,,9.084275812,4.523896388,61934.249084249,33.8161,925.9999998736282,8,0,0,0,0
Bischofszell,Thurgau,47.4928840836674,9.2435073543679,553.704053146765,516.5803109,26.52958877,20.47810097,61.04981612,18.47208292,2677,2.209189391,11.58,53.05770887,24.63393626,3.703703704,3361.0,82.0,1688.0,1591.0,391.0,32.0,79.0,280.0,5.99101348,1.55,7.270217416,16.86414356,11.5380191,32.91153802,3.38203152,10.75578051,1.552973657,,8.040952491,7.684343725,60368.2,150.9205,3792.9999987786546,12,1,2,0,0
Bissone,Ticino,45.9530153004475,8.96567803148966,331.37331911549,490.8602151,41.18291347,14.67688938,63.41730559,21.90580504,447,2.020134228,1.86,0.0,78.49462366,1.075268817,209.0,0.0,28.0,181.0,76.0,0.0,7.0,69.0,0.0,1.73,18.26171875,16.50390625,14.50195313,14.55078125,,0.439453125,,1.220703125,7.470703125,22.60742188,81094.664031621,41.0339,689.99999991375,2,1,1,0,0
Bister,Valais,46.3601525157229,8.06491750499,1110.41499933321,5.679862306,6.060606061,9.090909091,60.60606061,30.3030303,16,2.0,5.81,15.86206897,42.5862069,40.34482759,13.0,6.0,0.0,7.0,,,0.0,,0.0,,0.0,44.73684211,14.47368421,26.97368421,0.0,3.289473684,,,10.52631579,,41361.538461538,1.0754,25.0,0,0,0,0,0
Bitsch,Valais,46.3388582969904,8.00882213565492,952.351300233975,173.0569948,9.580838323,18.76247505,68.96207585,12.2754491,412,2.424757282,5.79,13.65187713,60.58020478,17.57679181,307.0,22.0,55.0,230.0,64.0,10.0,9.0,45.0,3.073770492,0.72,1.73289513,43.56139827,6.065132955,39.64744547,0.029877502,0.209142516,,,8.754108157,,54543.672456576,21.9811,625.0,9,0,1,0,0
Blatten,Valais,46.4206129026145,7.81976608015538,1592.65023878589,3.226162855,4.109589041,17.46575342,52.73972603,29.79452055,129,2.255813954,90.51,8.073779545,8.891097857,82.6154186,84.0,24.0,4.0,56.0,,8.0,,15.0,0.0,,0.488485694,73.55198883,1.674808095,20.02791347,0.279134683,0.069783671,,,3.838101884,,47694.366197183,6.7726,,7,0,0,0,0
Blauen,Basel-Landschaft,47.4502591818873,7.5195059675186,577.024819416925,98.1741573,9.871244635,17.16738197,58.08297568,24.74964235,306,2.267973856,7.12,34.1325811,60.22566996,0.282087447,100.0,16.0,29.0,55.0,42.0,7.0,6.0,29.0,1.447178003,,8.537946429,19.69866071,16.74107143,31.69642857,0.892857143,3.738839286,1.339285714,,16.51785714,,81599.689440994,26.2751,496.999999903085,2,0,0,0,0
Bleienbach,Bern,47.1845149882008,7.75659223511926,544.552923074923,125.3075571,6.591865358,17.11079944,59.04628331,23.84291725,321,2.183800623,5.69,56.9664903,33.15696649,1.587301587,598.0,51.0,340.0,207.0,67.0,17.0,20.0,30.0,7.173601148,,5.125693764,0.375448906,16.56872347,53.19947764,2.056807052,5.354227881,7.655892915,0.424420503,5.615409729,0.587659158,58698.717948718,18.314,494.00000011609,2,0,0,0,0
Blenio,Ticino,46.5291812951714,8.94021435151521,947.850560313091,8.762376238,7.175141243,16.10169492,55.93220339,27.96610169,837,2.070489845,202.0,24.83058812,29.35153584,44.53677598,584.0,120.0,147.0,317.0,173.0,37.0,32.0,104.0,1.642935378,1.5,19.26037169,18.07771729,15.73118078,17.47700394,,0.375445842,,0.168950629,7.208560165,18.04017271,51010.469314079,42.3897,1166.99999882133,31,0,0,1,0
Blonay - Saint-Légier,Vaud,46.4640193589377,6.89448334489875,665.45115724206,135.8936484,34.67391304,16.30434783,63.26086957,20.43478261,515,1.784466019,6.77,14.60176991,73.89380531,5.899705015,230.0,6.0,41.0,183.0,,,9.0,49.0,2.304147465,8.98,35.04225352,3.915492958,14.50704225,11.38028169,1.492957747,8.957746479,0.028169014,4.76056338,17.38028169,0.647887324,,,,35,1,1,1,0
Blumenstein,Bern,46.7405633747313,7.52107056458698,708.915715395473,80.41237113,3.525641026,19.39102564,56.25,24.35897436,540,2.262962963,15.52,48.25806452,39.87096774,7.935483871,345.0,60.0,150.0,135.0,85.0,22.0,25.0,38.0,2.444987775,2.17,3.230957077,0.216023293,10.26580257,49.55386494,6.499483423,5.860805861,9.580163426,0.018784634,6.302244764,4.724335494,56795.977011494,29.6475,766.0000002272467,8,0,0,0,0
Böckten,Basel-Landschaft,47.4631010194911,7.83517714224005,434.76038357988,361.8421053,11.75757576,20.72727273,60.24242424,19.03030303,346,2.338150289,2.28,43.6123348,40.969163,1.321585903,572.0,11.0,399.0,162.0,64.0,7.0,12.0,45.0,1.243781095,1.71,15.44265594,4.929577465,19.56740443,30.58350101,5.080482897,3.621730382,0.804828974,,19.86921529,,81360.632183908,28.3135,532.0000000340481,2,0,0,0,0
Bodio,Ticino,46.3774894135013,8.91261953629393,372.629365469329,149.382716,48.55371901,20.04132231,57.85123967,22.10743802,451,2.133037694,6.48,3.110419907,69.9844479,13.06376361,483.0,5.0,331.0,147.0,,,19.0,53.0,7.759456838,3.73,8.852290273,46.0627895,13.124035,7.822954195,,0.772002059,,0.051466804,6.587750901,14.92537313,53144.152046784,18.1753,557.99999958708,4,0,0,0,0
Boécourt,Jura,47.3493332024006,7.21496545821053,570.427983010188,74.89878543,8.432432432,22.27027027,58.7027027,19.02702703,373,2.461126005,12.35,49.51298701,41.31493506,0.568181818,384.0,37.0,280.0,67.0,58.0,13.0,11.0,34.0,1.092896175,0.66,8.743169399,16.57559199,19.85428051,16.21129326,20.94717668,,,,17.66848816,,62381.005586592,22.3324,589.9999998927273,10,0,0,0,0
Bofflens,Vaud,46.7034235308084,6.49846398074643,630.127599449828,46.0807601,6.18556701,18.55670103,69.07216495,12.37113402,79,2.455696203,4.21,71.22302158,23.02158273,0.0,62.0,36.0,8.0,18.0,24.0,11.0,5.0,8.0,0.0,,18.7723055,1.855817273,17.55888651,30.54960742,0.0,8.422555318,1.641684511,5.067808708,15.20342612,0.356887937,68391.025641026,5.3345,,1,0,0,0,0
Bogis-Bossey,Vaud,46.353825052492,6.16670935067389,520.134767690673,344.0816327,34.9940688,26.92763938,58.24436536,14.82799526,300,2.763333333,2.45,57.61316872,28.39506173,0.411522634,,13.0,,69.0,,4.0,,33.0,0.0,,27.74173618,4.324992277,12.29533519,17.85603954,1.544640099,13.28390485,0.15446401,1.729996911,19.36978684,1.204819277,126320.98765432,40.928,528.9999998578313,1,0,0,0,0
Bois-d'Amont,Fribourg,46.7546060347417,7.14545910850509,799.71116249077,185.0977199,15.70611527,24.81302244,60.14078311,15.04619446,882,2.555555556,12.28,62.3058054,26.65576451,1.39002453,361.0,86.0,87.0,188.0,126.0,24.0,18.0,84.0,8.23798627,1.0,15.56525353,17.29010806,23.60764755,17.70573566,3.013300083,5.174563591,0.187032419,,13.96508728,0.103906899,,,,9,0,0,1,0
Bolken,Solothurn,47.1910313319912,7.66294514437795,537.653434047475,280.6603774,5.042016807,23.02521008,62.5210084,14.45378151,234,2.52991453,2.12,64.78873239,21.59624413,1.877934272,,17.0,,41.0,,4.0,,21.0,1.680672269,1.0,16.92047377,13.62098139,20.05076142,23.51945854,0.338409476,6.852791878,4.822335025,,11.33671743,0.084602369,67690.666666667,15.2304,359.9999999712,1,0,0,0,0
Bolligen,Bern,46.9744568211852,7.49514201881416,628.933568352833,379.3602897,10.78587337,19.6627426,51.17721922,29.16003818,2743,2.233321181,16.57,43.52019289,43.76130199,0.301386377,1590.0,132.0,252.0,1206.0,345.0,43.0,37.0,265.0,0.958466454,2.6,14.61249724,3.294325458,16.47309929,22.36402444,3.950835357,12.36181644,8.620004416,0.250239199,13.67336425,1.248252006,89355.463991401,249.3911,2838.9999991434534,16,1,1,0,0
Boltigen,Bern,46.6290388518817,7.3929359115929,868.890655198134,16.2449721,4.872204473,17.8115016,56.86900958,25.31948882,549,2.256830601,77.07,52.94499222,35.40477426,9.237156201,504.0,218.0,86.0,200.0,176.0,84.0,28.0,64.0,0.787401575,1.27,5.563433147,0.183501543,4.996246559,68.73800984,0.825756944,4.946200684,4.495787806,0.058386855,3.728417716,2.60238552,47350.712830957,23.2492,821.000001071405,17,0,0,0,0
Bonaduz,Graubünden,46.8119402687196,9.3989233512091,704.972353848629,240.7638889,13.78713585,21.43063167,62.90741275,15.66195558,1486,2.315612382,14.4,24.29065744,62.00692042,5.882352941,1538.0,68.0,876.0,594.0,178.0,12.0,26.0,140.0,14.26836673,1.05,11.05981534,20.4937776,15.75672421,26.8366118,,12.44480128,7.747892413,,5.660377359,,69399.618611747,90.9829,1933.0000003699363,4,1,0,0,0
Boncourt,Jura,47.4962821412907,7.01660612556703,433.227660971694,135.0721421,10.92851274,18.15940838,51.76663928,30.07395234,570,2.107017544,9.01,41.35254989,38.02660754,0.554323725,1668.0,46.0,880.0,742.0,106.0,10.0,18.0,78.0,1.651527663,3.51,6.064356436,35.14851485,26.48514851,13.73762376,9.405940594,,,,9.158415842,,65474.021352313,36.7964,775.0000003875,5,1,0,0,0
Bonfol,Jura,47.4769146688155,7.15340209021124,482.225253439508,48.01178203,10.58282209,16.25766871,51.99386503,31.74846626,328,1.954268293,13.58,47.09772226,44.01175606,1.983835415,328.0,41.0,214.0,73.0,55.0,13.0,19.0,23.0,6.042296073,4.05,11.62280702,22.14912281,19.95614035,30.48245614,3.947368421,,,,11.84210526,,50807.395498392,15.8011,428.00000002396797,2,0,0,0,0
Bönigen,Bern,46.6857100581679,7.89483546679332,620.580984292552,167.4172185,9.57278481,19.34335443,57.0806962,23.57594937,1170,2.11965812,15.1,16.44562334,57.4933687,19.82758621,768.0,29.0,443.0,296.0,123.0,11.0,36.0,76.0,2.786624204,2.68,6.76536135,1.167356468,16.53931869,36.20396901,3.300435106,10.53273904,9.773957338,0.265308288,9.938448477,1.920832007,58524.025385313,64.552,1257.99999939616,9,0,0,0,0
Boningen,Solothurn,47.3083231772527,7.85651020012578,468.470235493965,278.6231884,13.26397919,19.76592978,68.53055917,11.70351105,336,2.270833333,2.76,37.5,27.85714286,9.642857143,249.0,26.0,130.0,93.0,41.0,7.0,13.0,21.0,1.324503311,3.63,17.89727127,10.83467095,18.21829856,38.52327448,1.203852327,3.370786517,4.494382023,,3.93258427,1.123595506,63976.056338028,22.7115,495.99999973546664,4,0,0,0,0
Boniswil,Aargau,47.3156559647999,8.18590265848724,523.90964650549,614.1078838,14.59459459,19.25675676,61.01351351,19.72972973,650,2.24,2.41,58.2278481,8.016877637,12.65822785,191.0,7.0,68.0,116.0,84.0,5.0,23.0,56.0,48.64091559,0.84,10.85051546,5.322164949,15.82474227,38.00257732,2.976804124,9.832474227,2.306701031,,11.04381443,1.262886598,71937.540453074,44.4574,1061.9999997801035,4,0,0,0,0
Bonstetten,Zürich,47.315286937152,8.4676261303297,591.457068826072,749.9327052,16.5649677,23.63603733,59.83488873,16.52907394,2327,2.384185647,7.43,55.51075269,28.62903226,0.403225807,1014.0,34.0,111.0,869.0,281.0,14.0,26.0,241.0,0.181422351,1.51,15.35498391,3.867961277,16.74289094,26.11631296,4.194018438,16.23793516,1.284030413,0.176013158,12.36853116,1.385021569,88927.698145025,210.9365,2775.999999838199,8,1,1,0,1
Bonvillars,Vaud,46.8387520534314,6.67045272256416,523.90829151962,65.15957447,9.183673469,20.6122449,58.16326531,21.2244898,207,2.338164251,7.52,48.46461949,44.32576769,0.667556742,127.0,46.0,40.0,41.0,37.0,14.0,4.0,19.0,0.0,1.39,26.2105592,1.686972821,13.52702281,28.99094033,0.312402374,5.248359888,0.374882849,2.405498282,18.96282412,0.656044986,79164.319248826,16.862,310.000000155,5,0,0,0,0
Boppelsen,Zürich,47.4705683415188,8.40164826581987,560.741963103414,361.6161616,11.59217877,22.83519553,58.86871508,18.29608939,593,2.404721754,3.96,40.10152284,46.1928934,1.269035533,318.0,167.0,19.0,132.0,79.0,11.0,9.0,59.0,17.47997087,1.31,13.94493428,2.385460053,8.719640829,38.05917672,6.344999189,14.97268351,1.092659707,0.578785092,10.18012658,3.039974036,112713.89365352,65.7122,927.0000000551565,2,0,0,0,0
Borex,Vaud,46.3791259207821,6.17651528674104,522.205847656354,566.8341709,29.34397163,25.79787234,58.5106383,15.69148936,449,2.510022272,1.99,77.55102041,1.530612245,0.0,104.0,24.0,8.0,72.0,53.0,5.0,7.0,41.0,9.743135518,,27.70992366,4.713740458,14.19847328,21.75572519,0.916030534,16.60305344,0.152671756,0.935114504,11.20229008,0.095419847,123987.0669746,53.6864,728.0000000513883,1,0,0,0,0
Bosco/Gurin,Ticino,46.316508524926,8.49157028864358,1545.98041682877,2.226260791,8.163265306,6.12244898,63.26530612,30.6122449,28,1.75,22.01,24.38692098,30.88101726,44.09627611,69.0,11.0,13.0,45.0,22.0,4.0,4.0,14.0,0.0,,22.56097561,15.24390244,14.63414634,13.41463415,,4.878048781,,4.878048781,9.146341463,1.219512195,49007.692307692,1.2742,35.99999999712,5,1,0,0,0
Bösingen,Fribourg,46.8924195388753,7.22868476524672,601.229195643216,237.8925331,10.44294515,18.97917278,62.15899091,18.86183632,1438,2.348400556,14.33,75.20949721,14.73463687,0.768156425,1024.0,127.0,348.0,549.0,223.0,41.0,42.0,140.0,10.20408163,1.7,11.44997325,24.79935795,16.81380417,23.71589085,3.370786517,5.992509363,2.113429642,,8.988764045,1.698769395,69260.479452055,101.1203,2131.0000000923433,5,0,0,0,0
Bossonnens,Fribourg,46.5213615920814,6.84829323623892,802.20007144846,366.9902913,22.35449735,26.19047619,62.16931217,11.64021164,590,2.53559322,4.12,71.46341463,16.34146341,0.0,496.0,18.0,178.0,300.0,89.0,7.0,19.0,63.0,2.0229265,2.06,12.23666517,13.40206186,27.11788436,19.81174361,3.675481847,7.037203048,0.71716719,,11.20573734,0.71716719,67253.832116788,36.8551,936.0000001009251,3,0,0,1,0
Boswil,Aargau,47.3003739294882,8.31262817413576,504.660879579373,243.8879457,18.83049078,21.33658197,62.2694048,16.39401323,1217,2.327033689,11.78,65.81632653,21.8537415,1.275510204,1389.0,120.0,531.0,738.0,230.0,40.0,55.0,135.0,17.24757456,1.66,9.589041096,16.05157131,9.734085415,48.76712329,1.1361805,4.004834811,2.780016116,,6.293311845,0.257856567,63373.018414732,79.1529,1959.9999995909563,1,0,1,0,0
Bottens,Vaud,46.6182765698216,6.65923039518616,780.910840278491,188.6627907,14.71494607,24.65331279,62.71186441,12.6348228,515,2.514563107,6.88,71.61383285,20.17291066,0.576368876,238.0,50.0,76.0,112.0,83.0,19.0,14.0,50.0,9.508716323,1.85,22.74503909,5.006013229,10.98917619,30.92303067,1.352976548,9.380637402,0.511124474,2.044497895,13.45460012,0.135297655,82762.5,41.0502,827.000000053379,2,0,0,0,0
Bottenwil,Aargau,47.2852002837467,8.00570022251885,537.19354434032,157.6470588,10.44776119,19.52736318,59.95024876,20.52238806,334,2.392215569,5.1,48.71287129,41.98019802,0.396039604,154.0,40.0,46.0,68.0,67.0,20.0,16.0,31.0,7.594936709,1.01,9.731144421,4.591958125,12.87175827,46.13371401,7.756364502,4.925053533,3.116821318,,7.423269094,2.355460385,66484.033613445,23.7348,591.000000114063,4,0,0,0,0
Botterens,Fribourg,46.6213811358957,7.11223877005761,788.348228697665,144.2622951,15.0974026,25.0,60.55194805,14.44805195,248,2.47983871,4.27,34.19811321,54.00943396,3.301886793,144.0,16.0,99.0,29.0,26.0,4.0,7.0,15.0,21.12676056,1.56,13.81118881,18.00699301,23.6013986,22.81468531,4.020979021,5.332167832,0.262237762,,11.01398601,0.0,64671.028037383,13.8396,439.99999997485713,2,0,0,0,0
Bottighofen,Thurgau,47.6391988649675,9.20589661884435,455.655900247395,954.7717842,33.76792699,19.07866145,57.32290309,23.59843546,1026,2.226120858,2.41,32.09876543,34.97942387,2.469135803,934.0,7.0,63.0,864.0,,,22.0,182.0,3.225806452,0.58,17.33755032,13.97354802,16.96377228,27.19953997,1.696377228,8.826912018,1.782633698,,11.4146061,0.80506038,113372.55639098,120.6284,1663.9999997781333,3,0,1,0,0
Bottmingen,Basel-Landschaft,47.5230610719636,7.57272589189097,343.946629653685,2268.561873,26.5516733,20.28600914,55.40321392,24.31077694,3002,2.231179214,2.99,26.51006711,18.45637584,1.342281879,1457.0,46.0,203.0,1208.0,325.0,6.0,29.0,290.0,8.645533141,2.17,24.78392098,8.800932913,18.69941007,21.78625326,2.833036082,7.573055289,1.001509123,,14.49444368,,119781.95926285,370.4856,3296.9999996653787,9,1,1,0,0
Böttstein,Aargau,47.5697829148113,8.24795277763353,368.28789114859,94.32624113,11.65413534,16.54135338,69.92481203,13.53383459,105,2.514285714,2.82,57.29537367,31.31672598,0.0,52.0,22.0,5.0,25.0,,9.0,,13.0,7.662835249,,18.23662396,10.85154484,10.62547099,38.96006029,0.602863602,4.521477016,4.747550867,,9.344385833,0.0,65869.49044586,103.4151,2372.9999988935892,7,1,0,0,0
Boudry,Neuchâtel,46.9495041186919,6.83832359062235,495.682031785138,372.1360382,28.69969537,23.39265673,59.74025974,16.86708353,2733,2.231247713,16.76,22.97136038,63.78281623,1.431980907,3746.0,63.0,1308.0,2375.0,353.0,18.0,68.0,267.0,3.102547355,8.48,23.57043236,3.725841801,18.84837617,12.4726041,,10.44032676,,8.906156605,21.99641363,,64694.295743747,147.4383,3408.00000054528,24,1,2,1,0
Bougy-Villars,Vaud,46.4790391835322,6.35520628683555,597.153920721263,267.2316384,30.23255814,21.77589852,56.87103594,21.35306554,193,2.435233161,1.77,38.20224719,22.47191011,0.0,114.0,47.0,0.0,67.0,28.0,4.0,0.0,24.0,2.079002079,1.43,20.61098221,2.938901779,11.25290023,32.17324053,0.03866976,11.36890951,0.232018562,0.928074246,18.21345708,0.0,154084.92462312,30.6629,373.00000006303696,2,0,0,0,0
Boulens,Vaud,46.6816468325094,6.71974820845104,766.782853025943,106.7251462,7.671232877,23.28767123,60.0,16.71232877,149,2.422818792,3.42,61.69590643,33.04093567,0.292397661,68.0,12.0,27.0,29.0,23.0,4.0,6.0,13.0,15.87301587,1.56,21.61290323,1.290322581,12.11981567,20.96774194,2.949308756,7.926267281,0.875576037,4.70046083,26.4516129,0.0,72790.909090909,9.6084,258.9999999555383,2,0,0,0,0
Bourg-en-Lavaux,Vaud,46.4945056373977,6.71572319238523,540.945440608077,553.6787565,22.19726745,19.35242373,59.79786637,20.8497099,2333,2.275610802,9.65,62.80991736,11.88016529,0.929752066,1825.0,318.0,178.0,1329.0,461.0,76.0,57.0,328.0,2.649006623,1.3,30.16532605,2.315158351,17.55364934,12.91146003,0.602534802,9.788964412,0.142471283,3.131400077,21.30242498,0.157312042,108570.31786942,252.7517,3160.99999958137,22,1,0,0,1
Bourg-Saint-Pierre,Valais,45.949644524206,7.20781879170017,1677.66673373245,2.226923505,9.5,12.5,59.5,28.0,85,2.152941177,89.81,27.27981294,7.270905244,64.68099321,,,,133.0,,,,17.0,0.0,,40.19851117,33.62282878,7.196029777,13.27543424,0.496277916,0.0,,,4.218362283,,46411.494252874,4.0378,153.99999996458,4,0,0,0,0
Bournens,Vaud,46.6040805085699,6.5628469148024,608.959239781834,107.4168798,22.61904762,26.9047619,57.38095238,15.71428571,161,2.608695652,3.91,74.80719794,16.19537275,1.542416452,59.0,19.0,4.0,36.0,35.0,6.0,4.0,25.0,0.0,1.74,19.66632963,0.202224469,19.46410516,30.58645096,0.151668352,15.31850354,0.202224469,1.820020222,12.2851365,0.050556117,91188.489208633,12.6752,318.00000002756,1,0,0,0,0
Bourrignon,Jura,47.3970579585388,7.2452303974622,821.364265171811,19.26199262,4.980842912,19.15708812,63.60153257,17.24137931,111,2.333333333,13.55,65.33628973,32.07686622,0.14781966,100.0,62.0,22.0,16.0,37.0,20.0,5.0,12.0,0.0,,1.709401709,23.07692308,17.94871795,31.62393162,9.829059829,,,,15.81196581,,54248.598130841,5.8046,160.0,5,0,0,0,0
