ANZAHL_FILIALEN_MIGROS,linregModel,knnModel,rfModel,xgbrModel,ensemble,GMDNAME,LAT_CNTR,LONG_CNTR
1.0,1.0,1.0,1.0,1.0,1.0,Aadorf,47.489522055137,8.90893659955656
4.0,5.0,5.0,5.0,4.0,5.0,Aarau,47.3902363879182,8.04522704922001
0.0,1.0,1.0,1.0,1.0,1.0,Aarberg,47.0454176552458,7.27808793740302
1.0,2.0,1.0,2.0,1.0,2.0,Aarburg,47.3198496174076,7.90025004437742
1.0,1.0,1.0,1.0,1.0,1.0,Aarwangen,47.2402442895438,7.77013046084433
0.0,0.0,0.0,0.0,0.0,0.0,Abtwil,47.1741087806665,8.3554181927786
0.0,0.0,0.0,1.0,1.0,0.0,Aclens,46.567675747679,6.50995741793213
0.0,0.0,0.0,0.0,0.0,0.0,Acquarossa,46.46182933691,8.93053670490431
0.0,1.0,1.0,0.0,1.0,1.0,Adelboden,46.4931530523569,7.55847091494726
2.0,0.0,1.0,1.0,1.0,1.0,Adligenswil,47.0705905579952,8.36418133549715
0.0,0.0,0.0,0.0,0.0,0.0,Adlikon,47.5829213741908,8.69216358170298
1.0,3.0,4.0,2.0,2.0,3.0,Adliswil,47.3120552618191,8.52575926675803
0.0,-0.0,0.0,0.0,0.0,0.0,Aedermannsdorf,47.3053546036446,7.60920793075696
0.0,0.0,0.0,0.0,0.0,0.0,Aefligen,47.0949434444041,7.55717271633635
0.0,0.0,0.0,0.0,0.0,0.0,Aegerten,47.1218888220455,7.28839961963638
1.0,1.0,2.0,1.0,1.0,1.0,Aesch (BL),47.4681683803573,7.59646344673839
0.0,0.0,0.0,0.0,0.0,0.0,Aesch (LU),47.2559132635029,8.24187797727719
0.0,-0.0,0.0,0.0,0.0,0.0,Aesch (ZH),47.3362395848504,8.43759636437168
0.0,0.0,0.0,0.0,0.0,0.0,Aeschi (SO),47.1802377040007,7.66290004495945
0.0,0.0,0.0,0.0,0.0,0.0,Aeschi bei Spiez,46.6584449024267,7.6960168468794
0.0,0.0,0.0,0.0,0.0,0.0,Aeugst am Albis,47.2674419019666,8.4865271589923
0.0,0.0,0.0,0.0,0.0,0.0,Affeltrangen,47.5274901329202,9.03084626478548
3.0,2.0,2.0,2.0,1.0,2.0,Affoltern am Albis,47.2776305225233,8.45368292395686
0.0,0.0,0.0,0.0,0.0,0.0,Affoltern im Emmental,47.0649473194199,7.73218929613204
0.0,0.0,0.0,0.0,0.0,0.0,Agarn,46.2959874957675,7.66445739612502
0.0,-0.0,0.0,0.0,0.0,0.0,Agiez,46.7178904730647,6.50736764445401
2.0,1.0,1.0,1.0,1.0,1.0,Agno,45.9970931868509,8.89849080850675
1.0,2.0,2.0,2.0,1.0,2.0,Aigle,46.3177092801858,6.96606095661577
0.0,1.0,0.0,0.0,0.0,0.0,Aire-la-Ville,46.1904268211969,6.0435753429135
0.0,0.0,0.0,0.0,0.0,0.0,Airolo,46.5285747471517,8.60909671467227
0.0,-0.0,0.0,0.0,0.0,0.0,Alberswil,47.1520958536118,8.00165414795935
0.0,-0.0,0.0,0.0,0.0,0.0,Albinen,46.3401236767283,7.63346821623034
0.0,0.0,0.0,0.0,0.0,0.0,Albula/Alvra,46.6787642545384,9.64511682313906
0.0,-0.0,0.0,0.0,0.0,0.0,Alchenstorf,47.1236073823643,7.64289594270934
0.0,0.0,0.0,0.0,0.0,0.0,Allaman,46.4704228377813,6.3957431359581
0.0,0.0,0.0,0.0,0.0,0.0,Alle,47.4255910196859,7.13114745583412
0.0,-0.0,0.0,0.0,0.0,0.0,Allmendingen,46.9141704907934,7.52527200692896
5.0,2.0,3.0,3.0,2.0,2.0,Allschwil,47.550978562541,7.53559907231667
2.0,1.0,1.0,1.0,1.0,1.0,Alpnach,46.940846078452,8.27394646574859
0.0,-0.0,0.0,0.0,0.0,0.0,Alpthal,47.0708177939443,8.71573863070963
0.0,0.0,0.0,0.0,0.0,0.0,Altbüron,47.180503366772,7.88189865894147
1.0,1.0,2.0,2.0,2.0,2.0,Altdorf (UR),46.8808843630931,8.64300231710238
0.0,1.0,0.0,1.0,1.0,1.0,Altendorf,47.1918293708798,8.83080440884966
0.0,-0.0,0.0,0.0,0.0,0.0,Altikon,47.5729321718137,8.78098327268668
0.0,0.0,0.0,0.0,0.0,0.0,Altishofen,47.2017584854172,7.96126256003029
0.0,0.0,0.0,0.0,0.0,0.0,Altnau,47.6096049460395,9.25812137538443
0.0,0.0,0.0,0.0,0.0,0.0,Alto Malcantone,46.0483419028739,8.90115286877628
1.0,2.0,2.0,2.0,2.0,2.0,Altstätten,47.3781071353174,9.54029237983821
0.0,0.0,0.0,0.0,0.0,0.0,Amden,47.1488364321726,9.15013678402479
0.0,-0.0,0.0,0.0,0.0,0.0,Amlikon-Bissegg,47.5702827189177,9.05871409922472
0.0,0.0,0.0,0.0,0.0,0.0,Ammerswil,47.3694805084486,8.20784071628396
3.0,2.0,2.0,2.0,1.0,2.0,Amriswil,47.5450928914979,9.29842851357172
0.0,-0.0,0.0,0.0,0.0,0.0,Amsoldingen,46.727011327544,7.5812251530263
0.0,0.0,0.0,0.0,0.0,0.0,Andeer,46.6027000559085,9.42658572403136
1.0,0.0,0.0,0.0,0.0,0.0,Andelfingen,47.5938552584304,8.67912485528467
0.0,0.0,0.0,0.0,0.0,0.0,Andermatt,46.6339715352406,8.59570674072759
0.0,0.0,0.0,0.0,0.0,0.0,Andwil (SG),47.4357155204794,9.2747168156968
0.0,0.0,1.0,0.0,0.0,0.0,Anières,46.2761727103587,6.22302131909831
0.0,0.0,0.0,0.0,0.0,0.0,Anniviers,46.1791861000027,7.57591541225222
0.0,-0.0,0.0,0.0,0.0,0.0,Anwil,47.4509973363223,7.94116564476025
1.0,1.0,2.0,1.0,1.0,1.0,Appenzell,47.3309199540775,9.41006112675208
0.0,0.0,0.0,0.0,0.0,0.0,Aranno,46.0172446865006,8.87061892992206
0.0,0.0,0.0,0.0,0.0,0.0,Arbaz,46.2728089883279,7.38416099469753
1.0,1.0,1.0,1.0,1.0,1.0,Arbedo-Castione,46.2128458985146,9.04424795172606
0.0,-0.0,0.0,0.0,0.0,0.0,Arboldswil,47.4166758105933,7.71689667202942
1.0,2.0,3.0,2.0,1.0,2.0,Arbon,47.5123156962656,9.43007001024193
0.0,0.0,0.0,0.0,0.0,0.0,Arch,47.1660624746134,7.42939640582191
0.0,1.0,0.0,0.0,0.0,0.0,Ardon,46.2115051452036,7.25723844478844
0.0,0.0,0.0,0.0,0.0,0.0,Arisdorf,47.5109876087744,7.76517779236361
0.0,0.0,0.0,0.0,0.0,0.0,Aristau,47.2864810134175,8.36395711736466
1.0,1.0,1.0,2.0,1.0,1.0,Arlesheim,47.4942159207826,7.62042709119281
0.0,-0.0,0.0,0.0,0.0,0.0,Arnex-sur-Nyon,46.3747871733233,6.19091440381987
0.0,-0.0,0.0,0.0,0.0,0.0,Arnex-sur-Orbe,46.6928005233269,6.51956794216235
0.0,0.0,0.0,0.0,0.0,0.0,Arni (AG),47.3183997833052,8.42006644508339
0.0,-0.0,0.0,0.0,0.0,0.0,Arni (BE),46.9346706273251,7.66450537509549
0.0,0.0,0.0,0.0,0.0,0.0,Arogno,45.9599104832363,8.98780145835812
0.0,0.0,0.0,1.0,1.0,0.0,Arosa,46.7780646013372,9.67538210059338
1.0,1.0,1.0,1.0,1.0,1.0,Arth,47.0546682753357,8.53765305097247
0.0,-0.0,0.0,0.0,0.0,0.0,Arzier-Le Muids,46.4595489957979,6.20848876022027
2.0,2.0,1.0,2.0,1.0,2.0,Ascona,46.1552231786717,8.77067319544296
0.0,-0.0,0.0,0.0,0.0,0.0,Assens,46.6126229539067,6.62275942237279
2.0,0.0,0.0,0.0,0.0,0.0,Astano,46.0125247726254,8.81626263458454
0.0,0.0,0.0,0.0,0.0,0.0,Attalens,46.5105671844806,6.848411154568
0.0,0.0,0.0,0.0,0.0,0.0,Attinghausen,46.8612206537983,8.63075814263838
0.0,0.0,0.0,0.0,0.0,0.0,Attiswil,47.2504803074657,7.61431749537739
1.0,2.0,1.0,1.0,1.0,1.0,Au (SG),47.4347972426052,9.63668095571451
0.0,1.0,0.0,1.0,1.0,1.0,Aubonne,46.4946728532802,6.39136766151656
0.0,-0.0,0.0,0.0,0.0,0.0,Auboranges,46.5823047950535,6.80587651420921
0.0,0.0,0.0,0.0,0.0,0.0,Auenstein,47.4166862574629,8.13961376053541
0.0,1.0,0.0,0.0,0.0,0.0,Augst,47.5353953560249,7.71751667791302
0.0,-0.0,0.0,0.0,0.0,0.0,Ausserberg,46.3143521496232,7.85147812936014
0.0,-0.0,0.0,0.0,0.0,0.0,Auswil,47.1347988893385,7.83538586590622
0.0,-0.0,0.0,0.0,0.0,0.0,Autigny,46.7362270573121,7.02126236263539
0.0,0.0,0.0,0.0,0.0,0.0,Auw,47.2109105988954,8.36528971553958
0.0,0.0,0.0,0.0,0.0,0.0,Avegno Gordevio,46.2275104401907,8.74392256226338
1.0,1.0,1.0,1.0,1.0,1.0,Avenches,46.8802213125135,7.03982034026618
0.0,-0.0,0.0,0.0,0.0,0.0,Avers,46.4724758523345,9.51297948478421
1.0,0.0,0.0,0.0,0.0,0.0,Avry,46.7885714568213,7.07062299249917
0.0,0.0,0.0,0.0,0.0,0.0,Avully,46.1701032122486,6.00136156948164
0.0,0.0,0.0,0.0,0.0,0.0,Avusy,46.1441191086728,6.00981368864067
0.0,1.0,0.0,0.0,0.0,0.0,Ayent,46.2764162315857,7.40750886796761
1.0,3.0,4.0,5.0,3.0,4.0,Baar,47.1959866284332,8.5286790419288
0.0,1.0,1.0,1.0,1.0,1.0,Bachenbülach,47.5034358310968,8.54825566293662
0.0,-0.0,0.0,0.0,0.0,0.0,Bachs,47.5251116715811,8.43981800153122
1.0,1.0,1.0,1.0,1.0,1.0,Bad Ragaz,47.0035904802236,9.50194450980412
8.0,4.0,5.0,5.0,3.0,4.0,Baden,47.4731221776841,8.30617918599753
3.0,3.0,1.0,3.0,1.0,2.0,Balerna,45.8489855579582,9.0065528127432
0.0,1.0,1.0,1.0,1.0,1.0,Balgach,47.4074271341717,9.60904324972988
0.0,0.0,0.0,0.0,0.0,0.0,Ballaigues,46.7296859338016,6.41427302860053
0.0,-0.0,0.0,0.0,0.0,0.0,Ballens,46.5547924616148,6.37455320818363
0.0,0.0,1.0,0.0,0.0,0.0,Ballwil,47.1527907332996,8.32076816742713
0.0,-0.0,0.0,0.0,0.0,0.0,Balm bei Günsberg,47.2532495356845,7.55884249020037
1.0,1.0,1.0,1.0,1.0,1.0,Balsthal,47.3159922449999,7.69388861063522
0.0,0.0,0.0,0.0,0.0,0.0,Baltschieder,46.3089067769597,7.86441782970759
0.0,0.0,0.0,0.0,0.0,0.0,Bannwil,47.2367399430167,7.73577187619464
0.0,0.0,0.0,0.0,0.0,0.0,Bardonnex,46.1497895289706,6.10545776266956
0.0,0.0,1.0,0.0,1.0,0.0,Bäretswil,47.33634438904,8.85707333397461
0.0,0.0,0.0,0.0,0.0,0.0,Bargen (BE),47.0381983385003,7.26232068809245
0.0,0.0,0.0,0.0,0.0,0.0,Bargen (SH),47.791530843134,8.61169119985385
0.0,-0.0,0.0,0.0,0.0,0.0,Bäriswil,47.0194126279074,7.52675547424079
0.0,0.0,0.0,0.0,0.0,0.0,Bärschwil,47.3819264515265,7.47305500334245
0.0,0.0,0.0,0.0,0.0,0.0,Bas-Intyamon,46.5664225296582,7.08387730943467
0.0,-0.0,0.0,0.0,0.0,0.0,Basadingen-Schlattingen,47.6686598331183,8.7474550483723
20.0,32.0,16.0,20.0,20.0,22.0,Basel,47.559016647842,7.58876001759463
0.0,0.0,0.0,0.0,0.0,0.0,Basse-Allaine,47.4801457413759,7.03132830523571
1.0,1.0,2.0,2.0,1.0,2.0,Bassersdorf,47.4441640217598,8.62922778360442
0.0,-0.0,0.0,0.0,0.0,0.0,Bassins,46.464311921224,6.23311789017705
0.0,0.0,0.0,0.0,0.0,0.0,Bätterkinden,47.1309403407596,7.53879941697198
0.0,0.0,0.0,0.0,0.0,0.0,Bättwil,47.4898387168452,7.51027695819284
0.0,0.0,0.0,0.0,0.0,0.0,Baulmes,46.7899867937544,6.52314660016493
1.0,1.0,1.0,1.0,1.0,1.0,Bauma,47.367573571827,8.87776596493367
3.0,0.0,0.0,0.0,0.0,0.0,Bavois,46.6841758464386,6.56677417971684
0.0,0.0,0.0,0.0,0.0,0.0,Beatenberg,46.6986573955133,7.79557616113234
0.0,0.0,0.0,0.0,0.0,0.0,Beckenried,46.9662002094278,8.47408015258604
0.0,1.0,0.0,0.0,0.0,0.0,Bedano,46.050820724397,8.91801748514473
0.0,0.0,0.0,0.0,0.0,0.0,Bedigliora,46.0023124581432,8.84182540479453
0.0,-0.0,0.0,0.0,0.0,0.0,Bedretto,46.5061527102064,8.51089110500899
0.0,-0.0,0.0,0.0,0.0,0.0,Beggingen,47.7670694261158,8.53777723755103
0.0,0.0,0.0,0.0,0.0,0.0,Begnins,46.4411046278247,6.25055274285644
0.0,-0.0,0.0,0.0,0.0,0.0,Beinwil (Freiamt),47.2308551090906,8.3458267045956
0.0,-0.0,0.0,0.0,0.0,0.0,Beinwil (SO),47.3620499269677,7.58688473938487
0.0,1.0,0.0,0.0,0.0,0.0,Beinwil am See,47.2660761078862,8.2023878472482
1.0,0.0,0.0,0.0,0.0,0.0,Belfaux,46.8210671255234,7.1070928488173
0.0,1.0,0.0,1.0,1.0,1.0,Bellach,47.2119243121314,7.49142886074352
0.0,1.0,0.0,1.0,1.0,1.0,Bellevue,46.2556243139939,6.15474106108654
0.0,-0.0,0.0,0.0,0.0,0.0,Bellikon,47.3891776088713,8.3445479702314
5.0,6.0,5.0,6.0,3.0,5.0,Bellinzona,46.1915353252291,9.02418642629997
0.0,-0.0,0.0,0.0,0.0,0.0,Bellmund,47.1056326317692,7.24497108692522
0.0,0.0,0.0,0.0,0.0,0.0,Bellwald,46.4234553799016,8.16061175882485
1.0,1.0,1.0,1.0,1.0,1.0,Belmont-Broye,46.8666338355782,7.01369000517095
0.0,0.0,0.0,1.0,0.0,0.0,Belmont-sur-Lausanne,46.5203532833276,6.67888744263824
0.0,-0.0,0.0,0.0,0.0,0.0,Belmont-sur-Yverdon,46.7457771803238,6.62466732263252
1.0,1.0,2.0,2.0,1.0,2.0,Belp,46.8907988080395,7.50030408960493
0.0,-0.0,0.0,0.0,0.0,0.0,Belprahon,47.2856865805765,7.40558026660745
0.0,0.0,0.0,0.0,0.0,0.0,Benken (SG),47.1985838457657,9.00521107083023
0.0,-0.0,0.0,0.0,0.0,0.0,Benken (ZH),47.6534864689028,8.65389649676274
0.0,-0.0,0.0,0.0,0.0,0.0,Bennwil,47.403014457665,7.78041466351663
0.0,0.0,0.0,0.0,0.0,0.0,Bercher,46.6914832522246,6.71046552101903
0.0,0.0,0.0,0.0,0.0,0.0,Berg (SG),47.4857284962411,9.40651091258201
0.0,0.0,1.0,0.0,0.0,0.0,Berg (TG),47.5786190684491,9.16665399957551
0.0,-0.0,0.0,0.0,0.0,0.0,Berg am Irchel,47.5695148120831,8.59748258073415
1.0,0.0,0.0,0.0,0.0,0.0,Bergdietikon,47.3879382513169,8.38691028565523
0.0,0.0,0.0,0.0,0.0,0.0,Bergün Filisur,46.6281640294347,9.74624817982367
0.0,0.0,0.0,1.0,1.0,0.0,Berikon,47.3502514673384,8.37565184574808
1.0,1.0,1.0,1.0,1.0,1.0,Beringen,47.6983573015874,8.57498777346694
0.0,0.0,0.0,0.0,0.0,0.0,Berken,47.2251119305386,7.70930019087507
0.0,0.0,0.0,0.0,0.0,0.0,Berlingen,47.6715758388692,9.01919526864963
21.0,23.0,14.0,15.0,14.0,16.0,Bern,46.9483843362966,7.43994609509997
0.0,1.0,1.0,1.0,1.0,1.0,Berneck,47.4253586766806,9.61242616625037
0.0,1.0,1.0,1.0,1.0,1.0,Bernex,46.1755011094247,6.07374547123486
0.0,-0.0,0.0,0.0,0.0,0.0,Berolle,46.558029704023,6.33666794300825
1.0,1.0,1.0,1.0,1.0,1.0,Beromünster,47.2058845328322,8.19096899887974
0.0,-0.0,0.0,0.0,0.0,0.0,Besenbüren,47.3127205653996,8.34457286918222
0.0,0.0,0.0,0.0,0.0,0.0,Bettenhausen,47.1729305209997,7.71431323174687
0.0,0.0,0.0,0.0,0.0,0.0,Bettens,46.6275772664563,6.57682958219057
0.0,-0.0,0.0,0.0,0.0,0.0,Bettingen,47.5705835376578,7.66587177459685
1.0,1.0,1.0,0.0,0.0,0.0,Bettlach,47.2029402813709,7.42411016142743
0.0,0.0,0.0,0.0,0.0,0.0,Bettmeralp,46.3763153282041,8.07030275442395
1.0,0.0,0.0,0.0,0.0,0.0,Bettwiesen,47.4969720284307,9.02595007379463
0.0,-0.0,0.0,0.0,0.0,0.0,Bettwil,47.2908123769545,8.26752184143149
0.0,0.0,0.0,0.0,0.0,0.0,Beurnevésin,47.4930631482718,7.1373908915367
0.0,0.0,0.0,0.0,0.0,0.0,Bever,46.5531772946531,9.88915952006115
1.0,1.0,1.0,1.0,1.0,1.0,Bex,46.2504339896588,7.01462499973163
2.0,1.0,1.0,1.0,1.0,1.0,Biasca,46.360524740242,8.97063934306586
2.0,1.0,1.0,1.0,1.0,1.0,Biberist,47.1821918080356,7.55868392911696
0.0,0.0,0.0,0.0,0.0,0.0,Biberstein,47.4134273504766,8.08126773340102
0.0,0.0,0.0,0.0,0.0,0.0,Bichelsee-Balterswil,47.4531610780321,8.93843556274879
0.0,0.0,0.0,0.0,0.0,0.0,Biel-Benken,47.5069152825454,7.52755530362994
7.0,9.0,5.0,5.0,4.0,6.0,Biel/Bienne,47.141616382142,7.24747675854432
1.0,0.0,0.0,0.0,0.0,0.0,Bière,46.5373038673222,6.33317937163292
0.0,-0.0,0.0,0.0,0.0,0.0,Biezwil,47.1138908528497,7.41754788749848
0.0,0.0,0.0,0.0,0.0,0.0,Biglen,46.9266412927305,7.62770720478393
0.0,-0.0,0.0,0.0,0.0,0.0,Billens-Hennens,46.6907333227818,6.89872917570613
0.0,-0.0,0.0,0.0,0.0,0.0,Binn,46.3639355311208,8.1832112640718
5.0,2.0,2.0,2.0,1.0,2.0,Binningen,47.5374526550614,7.57143386086154
1.0,1.0,1.0,1.0,1.0,1.0,Bioggio,46.0131646538519,8.90795911907627
0.0,-0.0,0.0,0.0,0.0,0.0,Bioley-Magnoux,46.7265724314684,6.71129916464469
2.0,1.0,1.0,1.0,1.0,1.0,Birmensdorf (ZH),47.3551261393435,8.43795014971903
0.0,0.0,0.0,0.0,0.0,0.0,Birmenstorf (AG),47.4618532798985,8.24763805737768
0.0,1.0,0.0,1.0,1.0,1.0,Birr,47.4369862636676,8.20086162987108
0.0,0.0,0.0,0.0,0.0,0.0,Birrhard,47.4375891523346,8.24461806556677
0.0,0.0,0.0,0.0,0.0,0.0,Birrwil,47.2904037240311,8.19612559021707
7.0,2.0,3.0,2.0,1.0,2.0,Birsfelden,47.5526714154982,7.62328325219555
0.0,-0.0,0.0,0.0,0.0,0.0,Birwinken,47.5817559664192,9.1973358699031
2.0,1.0,1.0,1.0,1.0,1.0,Bischofszell,47.4928840836674,9.2435073543679
1.0,0.0,0.0,0.0,0.0,0.0,Bissone,45.9530153004475,8.96567803148966
0.0,0.0,0.0,0.0,0.0,0.0,Bister,46.3601525157229,8.06491750499
1.0,0.0,0.0,0.0,0.0,0.0,Bitsch,46.3388582969904,8.00882213565492
0.0,0.0,0.0,0.0,0.0,0.0,Blatten,46.4206129026145,7.81976608015538
0.0,-0.0,0.0,0.0,0.0,0.0,Blauen,47.4502591818873,7.5195059675186
0.0,0.0,0.0,0.0,0.0,0.0,Bleienbach,47.1845149882008,7.75659223511926
0.0,0.0,0.0,0.0,0.0,0.0,Blenio,46.5291812951714,8.94021435151521
1.0,0.0,0.0,0.0,0.0,0.0,Blonay - Saint-Légier,46.4640193589377,6.89448334489875
0.0,-0.0,0.0,0.0,0.0,0.0,Blumenstein,46.7405633747313,7.52107056458698
0.0,0.0,0.0,0.0,0.0,0.0,Böckten,47.4631010194911,7.83517714224005
0.0,1.0,0.0,0.0,0.0,0.0,Bodio,46.3774894135013,8.91261953629393
0.0,0.0,0.0,0.0,0.0,0.0,Boécourt,47.3493332024006,7.21496545821053
0.0,-0.0,0.0,0.0,0.0,0.0,Bofflens,46.7034235308084,6.49846398074643
0.0,-0.0,0.0,0.0,0.0,0.0,Bogis-Bossey,46.353825052492,6.16670935067389
0.0,0.0,0.0,0.0,0.0,0.0,Bois-d'Amont,46.7546060347417,7.14545910850509
0.0,-0.0,0.0,0.0,0.0,0.0,Bolken,47.1910313319912,7.66294514437795
1.0,0.0,1.0,2.0,1.0,1.0,Bolligen,46.9744568211852,7.49514201881416
0.0,-0.0,0.0,0.0,0.0,0.0,Boltigen,46.6290388518817,7.3929359115929
0.0,0.0,0.0,1.0,0.0,0.0,Bonaduz,46.8119402687196,9.3989233512091
0.0,1.0,0.0,1.0,0.0,0.0,Boncourt,47.4962821412907,7.01660612556703
0.0,0.0,0.0,0.0,0.0,0.0,Bonfol,47.4769146688155,7.15340209021124
0.0,0.0,0.0,0.0,0.0,0.0,Bönigen,46.6857100581679,7.89483546679332
0.0,0.0,0.0,0.0,0.0,0.0,Boningen,47.3083231772527,7.85651020012578
0.0,0.0,0.0,0.0,0.0,0.0,Boniswil,47.3156559647999,8.18590265848724
1.0,0.0,1.0,0.0,1.0,0.0,Bonstetten,47.315286937152,8.4676261303297
0.0,-0.0,0.0,0.0,0.0,0.0,Bonvillars,46.8387520534314,6.67045272256416
0.0,0.0,0.0,0.0,0.0,0.0,Boppelsen,47.4705683415188,8.40164826581987
0.0,0.0,0.0,0.0,0.0,0.0,Borex,46.3791259207821,6.17651528674104
0.0,-0.0,0.0,0.0,0.0,0.0,Bosco/Gurin,46.316508524926,8.49157028864358
0.0,0.0,0.0,0.0,0.0,0.0,Bösingen,46.8924195388753,7.22868476524672
0.0,0.0,0.0,0.0,0.0,0.0,Bossonnens,46.5213615920814,6.84829323623892
1.0,0.0,0.0,0.0,0.0,0.0,Boswil,47.3003739294882,8.31262817413576
0.0,-0.0,0.0,0.0,0.0,0.0,Bottens,46.6182765698216,6.65923039518616
0.0,-0.0,0.0,0.0,0.0,0.0,Bottenwil,47.2852002837467,8.00570022251885
0.0,0.0,0.0,0.0,0.0,0.0,Botterens,46.6213811358957,7.11223877005761
1.0,0.0,0.0,0.0,0.0,0.0,Bottighofen,47.6391988649675,9.20589661884435
1.0,1.0,0.0,1.0,1.0,1.0,Bottmingen,47.5230610719636,7.57272589189097
0.0,0.0,0.0,0.0,0.0,0.0,Böttstein,47.5697829148113,8.24795277763353
2.0,1.0,1.0,1.0,1.0,1.0,Boudry,46.9495041186919,6.83832359062235
0.0,1.0,0.0,0.0,0.0,0.0,Bougy-Villars,46.4790391835322,6.35520628683555
0.0,-0.0,0.0,0.0,0.0,0.0,Boulens,46.6816468325094,6.71974820845104
0.0,1.0,0.0,1.0,1.0,1.0,Bourg-en-Lavaux,46.4945056373977,6.71572319238523
0.0,0.0,0.0,0.0,0.0,0.0,Bourg-Saint-Pierre,45.949644524206,7.20781879170017
0.0,-0.0,0.0,0.0,0.0,0.0,Bournens,46.6040805085699,6.5628469148024
0.0,-0.0,0.0,0.0,0.0,0.0,Bourrignon,47.3970579585388,7.2452303974622
0.0,-0.0,0.0,0.0,0.0,0.0,Boussens,46.6033302139993,6.58243766846705
0.0,0.0,0.0,0.0,0.0,0.0,Bovernier,46.0797657180963,7.08705011449431
0.0,-0.0,0.0,0.0,0.0,0.0,Bowil,46.8923269815122,7.69582052954329
0.0,0.0,0.0,0.0,0.0,0.0,Bözberg,47.4831419772745,8.15641090272985
0.0,0.0,0.0,0.0,0.0,0.0,Böztal,47.4998759746264,8.06240349285154
0.0,-0.0,0.0,0.0,0.0,0.0,Braunau,47.5026202200637,9.07258216412778
0.0,0.0,0.0,0.0,0.0,0.0,Bregaglia,46.3432574259554,9.58990523716756
0.0,0.0,0.0,0.0,0.0,0.0,Breggia,45.8613777717299,9.02107260953663
0.0,0.0,0.0,0.0,0.0,0.0,Breil/Brigels,46.7571494483605,9.04736777169992
1.0,1.0,0.0,1.0,1.0,1.0,Breitenbach,47.4070685039974,7.54328868669617
0.0,-0.0,0.0,0.0,0.0,0.0,Bremblens,46.5461515663084,6.51815054911584
5.0,1.0,1.0,1.0,1.0,1.0,Bremgarten (AG),47.3505047775089,8.34389108054795
0.0,0.0,0.0,1.0,0.0,0.0,Bremgarten bei Bern,46.97896784388,7.43863200408163
0.0,-0.0,0.0,0.0,0.0,0.0,Brenzikofen,46.8169198654329,7.61422026143612
0.0,0.0,0.0,0.0,0.0,0.0,Bretigny-sur-Morrens,46.5983605650426,6.64124651665888
0.0,0.0,0.0,0.0,0.0,0.0,Bretonnières,46.7130988735151,6.47213689777186
0.0,-0.0,0.0,0.0,0.0,0.0,Bretzwil,47.3979257569577,7.65189143304139
1.0,0.0,0.0,0.0,0.0,0.0,Brienz (BE),46.7561478700156,8.03155508417657
0.0,-0.0,0.0,0.0,0.0,0.0,Brienzwiler,46.7521687860369,8.10087806277452
3.0,2.0,3.0,3.0,2.0,2.0,Brig-Glis,46.3164660393811,7.98911295242014
0.0,0.0,0.0,0.0,0.0,0.0,Brione sopra Minusio,46.1834768289417,8.81540384017424
0.0,0.0,0.0,0.0,0.0,0.0,Brislach,47.4178614766113,7.54330971673887
1.0,0.0,0.0,1.0,1.0,0.0,Brissago,46.1190330318847,8.71027723515549
0.0,0.0,0.0,0.0,0.0,0.0,Brittnau,47.2584883461012,7.94728374621407
0.0,0.0,0.0,0.0,0.0,0.0,Broc,46.6033518976017,7.09929627775006
0.0,-0.0,0.0,0.0,0.0,0.0,Brot-Plamboz,46.9705239736181,6.73821404821455
3.0,2.0,2.0,3.0,2.0,2.0,Brugg,47.4828184776352,8.20682539203683
2.0,1.0,2.0,1.0,1.0,1.0,Brügg,47.1236807322762,7.28312315223505
0.0,0.0,0.0,0.0,0.0,0.0,Brunegg,47.4188930434136,8.21650545516353
0.0,-0.0,0.0,0.0,0.0,0.0,Brünisried,46.7611670840654,7.27763103488435
0.0,0.0,0.0,0.0,1.0,0.0,Brusino Arsizio,45.9281800379823,8.939199214413
0.0,0.0,0.0,0.0,0.0,0.0,Brusio,46.2570874995324,10.1262468988258
0.0,-0.0,0.0,0.0,0.0,0.0,Brüttelen,47.0226728195267,7.1479346561875
1.0,-0.0,0.0,0.0,0.0,0.0,Brütten,47.4724827249892,8.67364114713586
1.0,1.0,0.0,1.0,1.0,1.0,Bubendorf,47.4481054404835,7.73694895973589
0.0,1.0,1.0,1.0,1.0,1.0,Bubikon,47.2693458134215,8.81828720077634
0.0,0.0,0.0,0.0,0.0,0.0,Buch (SH),47.7168209950166,8.78329873671837
0.0,-0.0,0.0,0.0,0.0,0.0,Buch am Irchel,47.5476772960329,8.62224811965262
0.0,-0.0,0.0,0.0,0.0,0.0,Buchberg,47.5725657123085,8.56166247737675
0.0,0.0,0.0,0.0,0.0,0.0,Buchegg,47.1345755122297,7.47553652189846
0.0,-0.0,0.0,0.0,0.0,0.0,Buchholterberg,46.8239630654596,7.69549505320618
0.0,0.0,0.0,0.0,0.0,0.0,Buchillon,46.4697482044684,6.42049514597914
2.0,1.0,0.0,1.0,1.0,1.0,Buchrain,47.0959113024949,8.34749427587438
0.0,2.0,2.0,1.0,1.0,2.0,Buchs (AG),47.3874106868549,8.06903441292261
4.0,2.0,2.0,2.0,1.0,2.0,Buchs (SG),47.1652022926941,9.4712375055808
1.0,1.0,2.0,1.0,1.0,1.0,Buchs (ZH),47.4576627704569,8.43854915035366
0.0,0.0,0.0,0.0,0.0,0.0,Buckten,47.4099998591456,7.84538209946784
0.0,-0.0,1.0,0.0,0.0,0.0,Büetigen,47.1057564625778,7.34245896103294
0.0,-0.0,0.0,0.0,0.0,0.0,Bühl,47.0696530085008,7.24510179580546
0.0,0.0,0.0,0.0,0.0,0.0,Bühler,47.3730665518458,9.41824283511419
4.0,3.0,3.0,3.0,2.0,3.0,Bülach,47.5187999076486,8.54060969880395
3.0,3.0,4.0,3.0,2.0,3.0,Bulle,46.6149133799206,7.05744899921304
0.0,-0.0,0.0,0.0,0.0,0.0,Bullet,46.830711477481,6.55391129859414
0.0,0.0,0.0,0.0,0.0,0.0,Bünzen,47.3101865739645,8.3233691596782
1.0,1.0,1.0,1.0,1.0,1.0,Buochs,46.9738696845266,8.42034258103197
0.0,0.0,0.0,0.0,0.0,0.0,Bürchen,46.2838982389245,7.8136197452643
0.0,0.0,0.0,0.0,0.0,0.0,Bure,47.4413803851658,7.0064368535868
0.0,-0.0,0.0,0.0,0.0,0.0,Büren (SO),47.4491564074478,7.67065878306104
0.0,1.0,1.0,1.0,1.0,1.0,Büren an der Aare,47.1390590679285,7.37271774987445
0.0,1.0,0.0,0.0,0.0,0.0,Burg (AG),47.2347345899898,8.1808097495509
0.0,-0.0,0.0,0.0,0.0,0.0,Burg im Leimental,47.4574820174884,7.44127564496788
3.0,3.0,3.0,3.0,2.0,3.0,Burgdorf,47.0561789178108,7.6228972078026
0.0,0.0,0.0,0.0,0.0,0.0,Burgistein,46.7846532729805,7.5014939956552
0.0,1.0,0.0,1.0,1.0,1.0,Bürglen (TG),47.5500434922579,9.15243656984034
1.0,0.0,1.0,0.0,0.0,0.0,Bürglen (UR),46.8752790855572,8.66255562290893
1.0,0.0,0.0,0.0,0.0,0.0,Büron,47.2136689080957,8.09470957647414
0.0,-0.0,0.0,0.0,0.0,0.0,Bursinel,46.4389529752403,6.30395504046197
1.0,0.0,0.0,0.0,0.0,0.0,Bursins,46.4514144669975,6.29067749373437
0.0,-0.0,0.0,0.0,0.0,0.0,Burtigny,46.4663711384888,6.25781022854972
0.0,-0.0,0.0,1.0,0.0,0.0,Buseno,46.2722213751477,9.1069830434986
0.0,0.0,0.0,0.0,0.0,0.0,Büsserach,47.3908824758712,7.53928377351232
2.0,2.0,2.0,2.0,1.0,2.0,Bussigny,46.5500193719178,6.5519875882589
0.0,0.0,0.0,0.0,0.0,0.0,Bussnang,47.5583132064277,9.07828275881305
0.0,-0.0,0.0,0.0,0.0,0.0,Busswil bei Melchnau,47.1851960103429,7.82784274782526
0.0,-0.0,0.0,0.0,0.0,0.0,Bussy-sur-Moudon,46.6857862756645,6.81119706514659
1.0,1.0,1.0,0.0,1.0,1.0,Bütschwil-Ganterschwil,47.3604882961029,9.07219671817389
0.0,-0.0,0.0,0.0,0.0,0.0,Büttenhardt,47.756923723973,8.65360497652137
0.0,-0.0,0.0,0.0,0.0,0.0,Büttikon,47.3258791557219,8.26938937393706
0.0,0.0,1.0,0.0,0.0,0.0,Buttisholz,47.1147223578458,8.09481609597417
0.0,0.0,0.0,0.0,0.0,0.0,Buttwil,47.2689051958621,8.31079185311366
0.0,-0.0,0.0,0.0,0.0,0.0,Buus,47.5052684261158,7.86469246170287
0.0,0.0,0.0,0.0,0.0,0.0,Cademario,46.0214437104148,8.89397553021781
0.0,1.0,1.0,2.0,1.0,1.0,Cadempino,46.0334934425386,8.93563310371494
1.0,1.0,1.0,1.0,1.0,1.0,Cadenazzo,46.1511754207802,8.9492212858413
0.0,0.0,0.0,0.0,0.0,0.0,Calanca,46.3027229803476,9.11311211389498
0.0,0.0,0.0,0.0,0.0,0.0,Cama,46.2703269930324,9.17309600473281
0.0,0.0,0.0,0.0,0.0,0.0,Campo (Vallemaggia),46.288588280884,8.49492295908972
2.0,1.0,0.0,1.0,1.0,1.0,Canobbio,46.0348759802999,8.96667455150244
1.0,0.0,1.0,1.0,1.0,1.0,Capriasca,46.0672712210199,8.96628866636661
7.0,1.0,6.0,4.0,3.0,4.0,Carouge (GE),46.1843759084531,6.13958345654502
0.0,-0.0,0.0,0.0,0.0,0.0,Cartigny,46.1739304195249,6.0193917023608
3.0,1.0,1.0,2.0,1.0,1.0,Caslano,45.9730259486166,8.88107404673978
0.0,0.0,0.0,0.0,0.0,0.0,Castaneda,46.256410478669,9.14152087967856
0.0,0.0,0.0,0.0,0.0,0.0,Castel San Pietro,45.8624578403758,9.00822610383585
0.0,0.0,0.0,0.0,0.0,0.0,Cazis,46.7214255811952,9.42965301563685
0.0,0.0,0.0,0.0,0.0,0.0,Celerina/Schlarigna,46.5123761368671,9.86124072851533
0.0,-0.0,0.0,0.0,0.0,0.0,Céligny,46.3505449243964,6.19536975468573
0.0,0.0,0.0,0.0,0.0,0.0,Centovalli,46.1776273568791,8.69998840130179
0.0,-0.0,0.0,0.0,0.0,0.0,Cerentino,46.3051946588757,8.54587222904459
0.0,0.0,0.0,0.0,0.0,0.0,Cevio,46.3163413382659,8.60063197099096
2.0,0.0,0.0,0.0,0.0,0.0,Chalais,46.2656056153525,7.50738816444354
2.0,3.0,2.0,3.0,2.0,2.0,Cham,47.181326113937,8.45977209521454
0.0,1.0,0.0,0.0,0.0,0.0,Chamblon,46.7789259894987,6.60583297040347
1.0,1.0,1.0,0.0,0.0,0.0,Chamoson,46.2006535565293,7.22488710698874
0.0,0.0,0.0,0.0,0.0,0.0,Champagne,46.8314761116138,6.65875991891008
0.0,0.0,0.0,0.0,0.0,0.0,Champéry,46.1778318424161,6.87015299885438
0.0,-0.0,0.0,0.0,0.0,0.0,Champoz,47.2559233804403,7.29858898106529
0.0,-0.0,0.0,0.0,0.0,0.0,Champtauroz,46.7603287663357,6.78938361669273
0.0,-0.0,0.0,0.0,0.0,0.0,Champvent,46.7831696359612,6.57171784067787
0.0,0.0,0.0,0.0,0.0,0.0,Chancy,46.1499329324265,5.97211998179703
0.0,-0.0,0.0,0.0,0.0,0.0,Chapelle (Glâne),46.5878583289638,6.83451757948451
0.0,0.0,0.0,0.0,0.0,0.0,Chardonne,46.4771669494166,6.82663902398154
0.0,0.0,0.0,0.0,0.0,0.0,Château-d'Oex,46.4739094096899,7.13266077050716
0.0,1.0,1.0,1.0,1.0,1.0,Châtel-Saint-Denis,46.5270244203791,6.90166879020918
0.0,0.0,0.0,0.0,0.0,0.0,Châtel-sur-Montsalvens,46.6133220533604,7.12534172894325
0.0,0.0,0.0,0.0,0.0,0.0,Châtillon (FR),46.8325066346964,6.82783418752098
0.0,-0.0,0.0,0.0,0.0,0.0,Châtillon (JU),47.3270258638976,7.34337869226846
0.0,-0.0,0.0,0.0,0.0,0.0,Châtonnaye,46.7538854109947,6.93866915738776
0.0,0.0,0.0,1.0,1.0,0.0,Chavannes-de-Bogis,46.3438726347683,6.16174630579767
0.0,-0.0,0.0,0.0,0.0,0.0,Chavannes-des-Bois,46.3156489012176,6.13254647982076
0.0,-0.0,0.0,0.0,0.0,0.0,Chavannes-le-Chêne,46.7773592809794,6.77870266011142
0.0,-0.0,0.0,0.0,0.0,0.0,Chavannes-le-Veyron,46.6058585313537,6.45056122102694
1.0,1.0,2.0,2.0,2.0,2.0,Chavannes-près-Renens,46.5276828392561,6.57190521237501
0.0,-0.0,0.0,0.0,0.0,0.0,Chavannes-sur-Moudon,46.657886674946,6.80890880559409
0.0,1.0,1.0,1.0,1.0,1.0,Chavornay,46.7057936622633,6.57034749153742
3.0,2.0,1.0,2.0,2.0,2.0,Chêne-Bougeries,46.1975098467696,6.18720711506335
1.0,2.0,2.0,1.0,1.0,2.0,Chêne-Bourg,46.1939980095253,6.1950609737908
0.0,-0.0,0.0,0.0,0.0,0.0,Chêne-Pâquier,46.7719010910322,6.76829530361842
0.0,0.0,0.0,0.0,0.0,0.0,Chénens,46.7406510307197,7.00160048486014
0.0,0.0,0.0,0.0,0.0,0.0,Cheseaux-Noréaz,46.7784859951484,6.67131333353313
1.0,1.0,0.0,1.0,1.0,1.0,Cheseaux-sur-Lausanne,46.5846056248663,6.60491588750536
0.0,0.0,0.0,0.0,0.0,0.0,Chéserex,46.4006981494783,6.17471245795265
0.0,0.0,0.0,0.0,0.0,0.0,Chessel,46.3497713883838,6.89433133900478
0.0,-0.0,0.0,0.0,0.0,0.0,Chevilly,46.6429614163654,6.47600597354738
0.0,0.0,0.0,0.0,0.0,0.0,Chevroux,46.8886824697298,6.90854638306887
0.0,1.0,0.0,0.0,0.0,0.0,Chexbres,46.4822860923628,6.77709427240473
0.0,0.0,0.0,0.0,0.0,0.0,Cheyres-Châbles,46.8142917417377,6.78742139961932
3.0,2.0,2.0,4.0,2.0,2.0,Chiasso,45.8352058402674,9.02675277833383
0.0,-0.0,0.0,0.0,0.0,0.0,Chigny,46.5197203462692,6.47689699777467
0.0,1.0,0.0,0.0,0.0,0.0,Chippis,46.2790725901832,7.54243405955576
0.0,-0.0,0.0,0.0,0.0,0.0,Choulex,46.2249178098359,6.22546357135796
7.0,5.0,4.0,5.0,3.0,4.0,Chur,46.8510534089339,9.5275741926196
1.0,0.0,0.0,0.0,0.0,0.0,Churwalden,46.7815014986553,9.5419068249516
0.0,-0.0,0.0,0.0,0.0,0.0,Clarmont,46.5473805961395,6.45032652862049
0.0,0.0,0.0,0.0,0.0,0.0,Clos du Doubs,47.367206458506,7.16193485637418
0.0,-0.0,0.0,0.0,0.0,0.0,Coeuve,47.4533791750688,7.097835515974
0.0,0.0,0.0,0.0,0.0,0.0,Coinsins,46.4238777625189,6.23792065737371
1.0,1.0,0.0,1.0,0.0,0.0,Coldrerio,45.8537503639902,8.98737575636587
0.0,-0.0,0.0,0.0,0.0,0.0,Collex-Bossy,46.2705264145249,6.12065778169356
0.0,1.0,0.0,1.0,1.0,1.0,Collina d'Oro,45.982450301701,8.91745834144949
0.0,1.0,1.0,1.0,1.0,1.0,Collombey-Muraz,46.2779597007667,6.92748603810308
1.0,1.0,0.0,1.0,1.0,1.0,Collonge-Bellerive,46.2408263013018,6.19917605223195
0.0,0.0,0.0,0.0,0.0,0.0,Collonges,46.1713499652948,7.03595923812101
0.0,2.0,0.0,1.0,1.0,1.0,Cologny,46.2172544583795,6.18286450869019
0.0,1.0,0.0,1.0,1.0,1.0,Comano,46.0359324716653,8.95507753566497
0.0,0.0,0.0,0.0,0.0,0.0,Commugny,46.3188194754617,6.1740221380282
0.0,0.0,0.0,0.0,0.0,0.0,Concise,46.8534684176479,6.72007118502653
0.0,1.0,0.0,1.0,1.0,1.0,Confignon,46.1738426912109,6.08544263160148
0.0,-0.0,0.0,0.0,0.0,0.0,Conters im Prättigau,46.9024726022814,9.79872797015381
2.0,1.0,1.0,1.0,1.0,1.0,Conthey,46.2304631021193,7.30513492391875
0.0,1.0,0.0,1.0,1.0,1.0,Coppet,46.3172223923267,6.19223767755773
0.0,-0.0,0.0,0.0,0.0,0.0,Corbeyrier,46.3509707287145,6.9605744507888
0.0,0.0,0.0,0.0,0.0,0.0,Corbières,46.6591314775453,7.10155769441622
0.0,-0.0,0.0,0.0,0.0,0.0,Corcelles (BE),47.2847911903557,7.45448849654441
0.0,-0.0,0.0,0.0,0.0,0.0,Corcelles-le-Jorat,46.6071171581783,6.74162597378435
0.0,0.0,0.0,0.0,0.0,0.0,Corcelles-près-Concise,46.8470970687787,6.70835624980911
0.0,0.0,0.0,0.0,0.0,0.0,Corcelles-près-Payerne,46.8313452611748,6.96154089159402
0.0,0.0,0.0,0.0,0.0,0.0,Corgémont,47.1935609808459,7.14172378611652
0.0,0.0,0.0,0.0,0.0,0.0,Corminboeuf,46.808466086028,7.10455039898789
0.0,-0.0,0.0,0.0,0.0,0.0,Cormoret,47.1726104253588,7.05346299937672
0.0,1.0,0.0,0.0,0.0,0.0,Cornaux,47.0384680937891,7.02021928366053
0.0,-0.0,0.0,0.0,0.0,0.0,Cornol,47.4058877490748,7.16438277063671
0.0,2.0,0.0,0.0,0.0,0.0,Corseaux,46.4726622121177,6.8253879299118
0.0,0.0,0.0,0.0,0.0,0.0,Corsier (GE),46.2626948538376,6.22462002161279
0.0,1.0,0.0,1.0,1.0,1.0,Corsier-sur-Vevey,46.470053947715,6.84234331850172
1.0,1.0,1.0,1.0,1.0,1.0,Cortaillod,46.9423493065941,6.84628433009843
0.0,0.0,0.0,0.0,0.0,0.0,Cortébert,47.1898691661367,7.10743758628865
1.0,1.0,0.0,1.0,1.0,1.0,Cossonay,46.6135392370531,6.507862749957
0.0,0.0,0.0,0.0,0.0,0.0,Cottens (FR),46.7515570189767,7.03161349615004
0.0,-0.0,0.0,0.0,0.0,0.0,Courchapoix,47.3486513093848,7.45582974221615
0.0,0.0,0.0,0.0,0.0,0.0,Courchavon,47.4397593989121,7.05682652362072
0.0,0.0,0.0,0.0,0.0,0.0,Courgenay,47.4030915629907,7.12597873583613
0.0,0.0,0.0,0.0,0.0,0.0,Courgevaux,46.9056373080027,7.11181958656752
0.0,1.0,0.0,0.0,0.0,0.0,Courrendlin,47.3387398949745,7.37379037883959
0.0,0.0,0.0,0.0,0.0,0.0,Courroux,47.3612264460182,7.37508632664638
0.0,0.0,0.0,0.0,0.0,0.0,Court,47.2397748116929,7.33825306794434
0.0,0.0,0.0,0.0,0.0,0.0,Courtedoux,47.4091305782031,7.04247255273349
0.0,0.0,0.0,0.0,0.0,0.0,Courtelary,47.178971421628,7.07320545518126
1.0,1.0,1.0,1.0,1.0,1.0,Courtepin,46.8633967490375,7.12519186550124
0.0,0.0,0.0,0.0,0.0,0.0,Courtételle,47.3404936720764,7.31821334937666
0.0,0.0,0.0,0.0,0.0,0.0,Crans (VD),46.3578400989712,6.20429846446557
1.0,1.0,2.0,2.0,2.0,2.0,Crans-Montana,46.3159876369997,7.49576690333735
0.0,0.0,0.0,0.0,0.0,0.0,Crassier,46.374483039551,6.16362510128522
0.0,0.0,0.0,0.0,0.0,0.0,Crémines,47.282993245797,7.43994836481333
0.0,0.0,0.0,0.0,0.0,0.0,Cressier (FR),46.8985202673586,7.14073443425435
0.0,1.0,0.0,0.0,0.0,0.0,Cressier (NE),47.0511222136211,7.03722932245243
0.0,0.0,0.0,0.0,0.0,0.0,Crésuz,46.618758093871,7.13967105820044
1.0,2.0,2.0,2.0,2.0,2.0,Crissier,46.5547175867963,6.57799182597323
0.0,-0.0,0.0,0.0,0.0,0.0,Cronay,46.7561632464898,6.69650112426762
0.0,-0.0,0.0,0.0,0.0,0.0,Croy,46.6942430155109,6.47639742737344
0.0,-0.0,0.0,0.0,0.0,0.0,Cuarnens,46.6255444012909,6.4384485549958
0.0,-0.0,0.0,0.0,0.0,0.0,Cuarny,46.7704692429623,6.68321110584552
0.0,0.0,0.0,0.0,0.0,0.0,Cudrefin,46.9557095883497,7.01955204600426
0.0,0.0,1.0,0.0,0.0,0.0,Cugnasco-Gerra,46.1740887770393,8.91747871076785
0.0,0.0,0.0,0.0,0.0,0.0,Cugy (FR),46.8139364238874,6.89093968260701
1.0,0.0,0.0,1.0,1.0,0.0,Cugy (VD),46.5830597323501,6.6401677508749
0.0,1.0,0.0,0.0,0.0,0.0,Cureglia,46.0369704744691,8.94477142799626
0.0,0.0,0.0,0.0,0.0,0.0,Curio,46.0020367922829,8.86376544813899
0.0,-0.0,0.0,0.0,0.0,0.0,Curtilles,46.6985823557967,6.84896555854147
0.0,1.0,0.0,0.0,0.0,0.0,Dachsen,47.66464779521,8.61820294419632
0.0,-0.0,0.0,0.0,0.0,0.0,Dägerlen,47.5610049943119,8.72221049486623
0.0,1.0,0.0,1.0,1.0,1.0,Dagmersellen,47.2124228119465,7.98908813829032
0.0,0.0,0.0,0.0,0.0,0.0,Daillens,46.6201598878777,6.54822380577724
0.0,0.0,0.0,0.0,0.0,0.0,Dallenwil,46.9255541313727,8.38925936059725
0.0,1.0,0.0,1.0,1.0,1.0,Dällikon,47.4396761390277,8.43821133714845
0.0,-0.0,0.0,0.0,0.0,0.0,Dalpe,46.4736683595265,8.7745929890039
0.0,-0.0,0.0,0.0,0.0,0.0,Damphreux,47.4758795302878,7.10299721605531
1.0,1.0,1.0,1.0,1.0,1.0,Däniken,47.3554693681565,7.98262179843916
0.0,0.0,0.0,0.0,0.0,0.0,Dänikon,47.4453538078204,8.40516988918132
1.0,0.0,0.0,0.0,0.0,0.0,Dardagny,46.1943210758741,5.9955394604441
0.0,0.0,0.0,0.0,0.0,0.0,Därligen,46.6617345430712,7.80839840020377
0.0,-0.0,0.0,0.0,0.0,0.0,Därstetten,46.659621026686,7.49220495028733
0.0,-0.0,0.0,0.0,0.0,0.0,Dättlikon,47.5233696834597,8.62436256970947
4.0,1.0,3.0,3.0,2.0,2.0,Davos,46.7975215587643,9.82557991824897
1.0,0.0,0.0,0.0,0.0,0.0,Degersheim,47.3730481701705,9.1970685174367
0.0,0.0,0.0,0.0,0.0,0.0,Deisswil bei Münchenbuchsee,47.0347362037673,7.45573462178985
0.0,1.0,0.0,0.0,0.0,0.0,Deitingen,47.2144916967317,7.62080023497562
2.0,2.0,3.0,3.0,2.0,2.0,Delémont,47.3639047757019,7.34595965143072
0.0,0.0,0.0,0.0,0.0,0.0,Delley-Portalban,46.9167767728166,6.95552949738528
0.0,-0.0,0.0,0.0,0.0,0.0,Démoret,46.747544463664,6.7568204100822
0.0,-0.0,0.0,0.0,0.0,0.0,Denens,46.5186535087768,6.45736772641524
0.0,1.0,0.0,0.0,0.0,0.0,Denges,46.5247411072553,6.54067207743179
0.0,-0.0,0.0,0.0,0.0,0.0,Densbüren,47.4540578253153,8.05258432632326
1.0,1.0,1.0,1.0,1.0,1.0,Derendingen,47.1956518298254,7.58642606012821
0.0,0.0,0.0,0.0,0.0,0.0,Develier,47.355756491473,7.29435394199966
0.0,0.0,0.0,0.0,0.0,0.0,Diegten,47.413713376534,7.8109591943336
3.0,1.0,2.0,1.0,1.0,1.0,Dielsdorf,47.4827168438283,8.4536155449363
0.0,-0.0,0.0,0.0,0.0,0.0,Diemerswil,47.018545700769,7.42810919482085
0.0,0.0,0.0,0.0,0.0,0.0,Diemtigen,46.6487691090821,7.56534480560123
0.0,-0.0,0.0,0.0,0.0,0.0,Diepflingen,47.4460034764718,7.83770167675329
1.0,1.0,1.0,1.0,1.0,1.0,Diepoldsau,47.3849441339211,9.65582093252653
1.0,0.0,0.0,1.0,1.0,0.0,Dierikon,47.0975202202176,8.37123287353613
0.0,0.0,0.0,0.0,0.0,0.0,Diessbach bei Büren,47.1084699462302,7.36221616653536
1.0,1.0,1.0,1.0,1.0,1.0,Diessenhofen,47.6875130739389,8.75058500469901
2.0,3.0,4.0,4.0,3.0,4.0,Dietikon,47.4058268500044,8.39915304694027
3.0,1.0,1.0,2.0,2.0,2.0,Dietlikon,47.4253872613253,8.61820415087556
0.0,-0.0,0.0,0.0,0.0,0.0,Dietwil,47.1477257098138,8.39188540202118
0.0,-0.0,0.0,0.0,0.0,0.0,Dinhard,47.5551005000501,8.76724504687645
0.0,0.0,0.0,0.0,0.0,0.0,Dintikon,47.3639503043644,8.227618820381
0.0,0.0,0.0,0.0,0.0,0.0,Disentis/Mustér,46.7030526770567,8.852198454154
0.0,0.0,0.0,0.0,0.0,0.0,Dittingen,47.4403784165227,7.49827997883155
0.0,-0.0,0.0,0.0,0.0,0.0,Dizy,46.6350301659786,6.49573780903522
1.0,1.0,1.0,1.0,1.0,1.0,Domat/Ems,46.8353317619829,9.45091236118216
0.0,0.0,0.0,0.0,0.0,0.0,Domleschg,46.7626081101473,9.44164993080376
0.0,-0.0,0.0,0.0,0.0,0.0,Dompierre (VD),46.7077487589095,6.88286592748959
0.0,-0.0,0.0,0.0,0.0,0.0,Donneloye,46.7445875512609,6.71498162544256
0.0,-0.0,0.0,0.0,0.0,0.0,Doppleschwand,47.0186908280088,8.05549855085976
0.0,0.0,0.0,0.0,0.0,0.0,Dorénaz,46.1488888584345,7.04389135969068
0.0,0.0,0.0,0.0,0.0,0.0,Dorf,47.5725961288321,8.64805748460055
0.0,0.0,0.0,0.0,0.0,0.0,Dörflingen,47.7067528458926,8.71908055245471
1.0,1.0,1.0,1.0,1.0,1.0,Dornach,47.4798338353085,7.61507142734762
0.0,1.0,0.0,0.0,1.0,0.0,Dottikon,47.3836546635519,8.23982958126186
1.0,1.0,1.0,1.0,1.0,1.0,Döttingen,47.569708249364,8.25858362300691
0.0,0.0,0.0,0.0,0.0,0.0,Dotzigen,47.1201471363893,7.3411150790954
0.0,0.0,0.0,0.0,0.0,0.0,Dozwil,47.5762402204006,9.31946196531355
0.0,-0.0,0.0,0.0,0.0,0.0,Drei Höfe,47.1569018503181,7.63511048318574
6.0,4.0,5.0,5.0,3.0,4.0,Dübendorf,47.3983672475051,8.62158027219991
2.0,1.0,1.0,1.0,1.0,1.0,Düdingen,46.846467293321,7.1908441018004
0.0,0.0,0.0,0.0,0.0,0.0,Duggingen,47.4528675192533,7.60437436552378
0.0,0.0,0.0,0.0,0.0,0.0,Duillier,46.4094311875848,6.23303820171472
1.0,1.0,1.0,1.0,1.0,1.0,Dulliken,47.3484425448306,7.945493951338
0.0,0.0,0.0,0.0,0.0,0.0,Dully,46.4325913695447,6.29758239187866
0.0,1.0,1.0,1.0,1.0,1.0,Dürnten,47.2771524494174,8.84228216339643
0.0,0.0,0.0,0.0,0.0,0.0,Dürrenäsch,47.3212370854856,8.15687943176743
0.0,-0.0,0.0,0.0,0.0,0.0,Dürrenroth,47.0890670702196,7.79158644623842
3.0,2.0,1.0,2.0,1.0,2.0,Ebikon,47.0824613389535,8.34199855862876
1.0,0.0,1.0,1.0,1.0,1.0,Ebnat-Kappel,47.2625904766558,9.12338625805721
1.0,1.0,1.0,1.0,1.0,1.0,Echallens,46.6405913932489,6.63409150983951
0.0,1.0,0.0,0.0,1.0,0.0,Echandens,46.5337361182091,6.54052263658882
0.0,-0.0,0.0,0.0,0.0,0.0,Echarlens,46.6482522222748,7.07419440174073
0.0,0.0,0.0,0.0,0.0,0.0,Echichens,46.5262024240852,6.49893938839391
0.0,1.0,0.0,0.0,0.0,0.0,Eclépens,46.6523655849351,6.52548273992531
0.0,-0.0,0.0,0.0,0.0,0.0,Ecublens (FR),46.6093123376392,6.80947577952971
2.0,3.0,3.0,4.0,3.0,3.0,Ecublens (VD),46.5294318851203,6.56535988291819
0.0,-0.0,0.0,0.0,0.0,0.0,Ederswiler,47.4259556755922,7.33524778306978
1.0,1.0,1.0,1.0,1.0,1.0,Egerkingen,47.3220267784007,7.79312452224604
1.0,1.0,1.0,1.0,1.0,1.0,Egg,47.3004866522083,8.69081917397504
0.0,0.0,0.0,0.0,0.0,0.0,Eggenwil,47.370321977864,8.34025543923334
0.0,0.0,0.0,0.0,0.0,0.0,Eggerberg,46.3106463810474,7.88000926012988
0.0,0.0,0.0,0.0,0.0,0.0,Eggersriet,47.4423007256567,9.47253949312956
0.0,0.0,0.0,0.0,0.0,0.0,Eggiwil,46.8749651450014,7.79674349468071
3.0,1.0,0.0,1.0,1.0,1.0,Eglisau,47.5747310994414,8.52316196230047
0.0,-0.0,0.0,0.0,0.0,0.0,Egliswil,47.3498244462363,8.18770475161315
1.0,1.0,1.0,1.0,0.0,1.0,Egnach,47.5410889511917,9.37800405101991
0.0,0.0,0.0,0.0,0.0,0.0,Egolzwil,47.1853496956101,8.00728145182508
0.0,0.0,0.0,0.0,0.0,0.0,Ehrendingen,47.5015644801881,8.35044424684088
0.0,0.0,0.0,0.0,0.0,0.0,Eich,47.1511633015354,8.16778427232255
0.0,0.0,0.0,0.0,0.0,0.0,Eichberg,47.3451281211881,9.52310658236113
0.0,1.0,0.0,0.0,0.0,0.0,Eiken,47.5317235788755,7.98973636493472
2.0,2.0,2.0,2.0,2.0,2.0,Einsiedeln,47.1270619072289,8.75398717603103
0.0,-0.0,0.0,0.0,0.0,0.0,Eischoll,46.2938998750647,7.77994732255896
0.0,0.0,0.0,0.0,0.0,0.0,Eisten,46.1999457803014,7.8933642105428
1.0,0.0,0.0,1.0,1.0,0.0,Elgg,47.490037228646,8.86780892642985
0.0,-0.0,0.0,0.0,0.0,0.0,Ellikon an der Thur,47.5634238460741,8.82459884107475
0.0,0.0,0.0,0.0,0.0,0.0,Elsau,47.5052253934873,8.80184118696634
0.0,0.0,0.0,0.0,0.0,0.0,Embd,46.2154527820135,7.8364749628574
1.0,1.0,2.0,1.0,1.0,1.0,Embrach,47.5029813884292,8.59470498240217
4.0,4.0,2.0,3.0,3.0,3.0,Emmen,47.0747488633161,8.29183297909912
0.0,-0.0,0.0,0.0,0.0,0.0,Emmetten,46.9567937462428,8.51857055752256
0.0,0.0,0.0,0.0,0.0,0.0,Endingen,47.5371028863099,8.28995706950369
1.0,0.0,0.0,1.0,1.0,0.0,Engelberg,46.8219733704542,8.40446883052488
0.0,-0.0,0.0,0.0,0.0,0.0,Enges,47.0564287780389,7.01218147872896
0.0,1.0,0.0,1.0,0.0,0.0,Ennetbaden,47.4793475843775,8.31556791673484
0.0,0.0,1.0,1.0,1.0,1.0,Ennetbürgen,46.9847078859415,8.41528255061218
0.0,0.0,0.0,0.0,0.0,0.0,Ennetmoos,46.9422906500552,8.32125405353184
0.0,0.0,0.0,0.0,0.0,0.0,Entlebuch,46.9925560793325,8.06440116691929
1.0,1.0,1.0,2.0,1.0,1.0,Epalinges,46.550011111462,6.67455856554908
0.0,0.0,0.0,0.0,0.0,0.0,Ependes (VD),46.7438649001691,6.60899262192494
0.0,1.0,0.0,0.0,0.0,0.0,Eppenberg-Wöschnau,47.3759552464878,8.02387858378462
0.0,-0.0,0.0,0.0,0.0,0.0,Epsach,47.0696078933547,7.22008802449632
0.0,-0.0,0.0,0.0,0.0,0.0,Eptingen,47.385801540441,7.82003499125308
0.0,-0.0,0.0,0.0,0.0,0.0,Ergisch,46.293180109597,7.71375907497539
0.0,-0.0,0.0,0.0,0.0,0.0,Eriswil,47.0789757567698,7.85077453045358
0.0,-0.0,0.0,0.0,0.0,0.0,Eriz,46.7886666370575,7.77783588325704
0.0,0.0,0.0,0.0,0.0,0.0,Erlach,47.0432192219954,7.09650348374594
0.0,0.0,0.0,0.0,0.0,0.0,Erlen,47.5479175917971,9.2334192805836
1.0,1.0,0.0,1.0,1.0,1.0,Erlenbach (ZH),47.3033191729315,8.5917024226561
0.0,0.0,0.0,0.0,0.0,0.0,Erlenbach im Simmental,46.6613764849462,7.55230853356049
1.0,1.0,0.0,1.0,1.0,1.0,Erlinsbach (AG),47.4003052598703,8.01089852706863
0.0,0.0,0.0,0.0,0.0,0.0,Erlinsbach (SO),47.3967272685458,8.00688619871039
0.0,0.0,1.0,0.0,0.0,0.0,Ermatingen,47.6706697204506,9.08442342474383
0.0,-0.0,0.0,0.0,0.0,0.0,Ermensee,47.2271412449262,8.2401252814757
0.0,0.0,0.0,0.0,0.0,0.0,Ernen,46.398366769034,8.14467481424054
0.0,0.0,0.0,0.0,0.0,0.0,Erschwil,47.3719922746553,7.54189640678927
0.0,0.0,0.0,0.0,0.0,0.0,Ersigen,47.0948961741233,7.59668688493978
1.0,1.0,1.0,1.0,1.0,1.0,Erstfeld,46.8214253456516,8.65084692443598
0.0,0.0,1.0,0.0,0.0,0.0,Eschenbach (LU),47.1321039470472,8.3204274550014
1.0,1.0,1.0,1.0,1.0,1.0,Eschenbach (SG),47.240170941882,8.92188831560065
0.0,0.0,0.0,0.0,0.0,0.0,Eschenz,47.6482828594867,8.87340634195171
0.0,-0.0,0.0,0.0,0.0,0.0,Eschert,47.2748910262868,7.3989792237576
0.0,1.0,1.0,1.0,1.0,1.0,Eschlikon,47.4653332843473,8.97061626744616
0.0,1.0,0.0,1.0,1.0,1.0,Escholzmatt-Marbach,46.9140302900121,7.93483942190134
0.0,-0.0,0.0,0.0,0.0,0.0,Essertines-sur-Rolle,46.4921641797606,6.31716780552549
0.0,-0.0,0.0,0.0,0.0,0.0,Essertines-sur-Yverdon,46.7143874960889,6.63822085298132
1.0,1.0,1.0,1.0,1.0,1.0,Estavayer,46.8497076343138,6.84861735029397
0.0,0.0,0.0,0.0,0.0,0.0,Etagnières,46.5999544250872,6.61250972130826
3.0,1.0,0.0,1.0,1.0,1.0,Etoy,46.4859389562392,6.42019045987579
1.0,1.0,0.0,1.0,0.0,0.0,Ettingen,47.4808185492597,7.54475927322487
0.0,0.0,0.0,0.0,0.0,0.0,Ettiswil,47.1493190171828,8.01744715108304
0.0,0.0,0.0,0.0,0.0,0.0,Etziken,47.186563646722,7.64709362278019
0.0,1.0,0.0,0.0,0.0,0.0,Evilard,47.1488010455967,7.24085862499006
0.0,0.0,0.0,0.0,0.0,0.0,Evionnaz,46.1785040416513,7.02425126224971
0.0,0.0,0.0,0.0,0.0,0.0,Evolène,46.1135869645629,7.49555828591744
1.0,0.0,0.0,0.0,0.0,0.0,Eysins,46.3812541772993,6.20636533153251
0.0,-0.0,0.0,0.0,0.0,0.0,Fahrni,46.7934626961417,7.65474711747674
1.0,0.0,0.0,0.0,0.0,0.0,Fahrwangen,47.2945876704005,8.24245970951092
0.0,0.0,0.0,0.0,0.0,0.0,Fahy,47.4177796467013,6.95229762840196
1.0,0.0,0.0,1.0,1.0,0.0,Faido,46.4787555048506,8.80076531471631
0.0,-0.0,0.0,0.0,0.0,0.0,Falera,46.8011841313691,9.23211991685237
2.0,1.0,1.0,1.0,1.0,1.0,Fällanden,47.3702970989979,8.63949474250632
0.0,0.0,0.0,0.0,0.0,0.0,Faoug,46.9082329836458,7.07767674370214
0.0,-0.0,0.0,0.0,0.0,0.0,Farnern,47.2666582348719,7.6222988077075
0.0,0.0,0.0,0.0,0.0,0.0,Féchy,46.4809863455776,6.37079529198208
2.0,1.0,1.0,1.0,1.0,1.0,Fehraltorf,47.387957546508,8.7524802810715
0.0,-0.0,0.0,0.0,0.0,0.0,Fehren,47.396237879987,7.57903174554677
0.0,0.0,0.0,0.0,0.0,0.0,Felben-Wellhausen,47.579933575801,8.94334707311398
0.0,0.0,0.0,0.0,0.0,0.0,Feldbrunnen-St. Niklaus,47.2208716410845,7.55612967557472
0.0,0.0,0.0,0.0,0.0,0.0,Felsberg,46.84655730799,9.47756209418266
0.0,0.0,0.0,0.0,0.0,0.0,Ferden,46.3938110932709,7.75977220695273
0.0,0.0,0.0,0.0,0.0,0.0,Ferenbalm,46.9400612847563,7.21142412808971
0.0,-0.0,0.0,0.0,0.0,0.0,Ferpicloz,46.7474649327445,7.16774525916834
0.0,-0.0,0.0,0.0,0.0,0.0,Ferrera,46.5205233775106,9.44312210735101
0.0,-0.0,0.0,0.0,0.0,0.0,Ferreyres,46.658329689273,6.48487774319847
0.0,0.0,0.0,0.0,0.0,0.0,Fétigny,46.797861999329,6.91599166272278
2.0,1.0,1.0,1.0,1.0,1.0,Feuerthalen,47.6913786865281,8.64277656914895
0.0,0.0,0.0,1.0,1.0,0.0,Feusisberg,47.1874087491176,8.74755362783429
0.0,-0.0,0.0,0.0,0.0,0.0,Fey,46.6751131351653,6.68324068446836
0.0,-0.0,0.0,0.0,0.0,0.0,Fideris,46.9153109679724,9.7428190898659
1.0,0.0,0.0,0.0,0.0,0.0,Fiesch,46.4029365886649,8.13303070876221
0.0,0.0,0.0,0.0,0.0,0.0,Fieschertal,46.425360637882,8.14372496457991
0.0,-0.0,0.0,0.0,0.0,0.0,Fiez,46.8276401839231,6.62473825870287
0.0,0.0,0.0,0.0,0.0,0.0,Finhaut,46.0829665693604,6.97714772373374
0.0,0.0,0.0,0.0,0.0,0.0,Finsterhennen,47.0245477770738,7.17949453892975
0.0,-0.0,0.0,0.0,0.0,0.0,Fischbach,47.1552139704473,7.90806247440284
0.0,0.0,0.0,0.0,0.0,0.0,Fischbach-Göslikon,47.3696462344539,8.31111560121994
0.0,0.0,0.0,0.0,0.0,0.0,Fischenthal,47.3319323399917,8.92179391245063
0.0,0.0,0.0,0.0,0.0,0.0,Fischingen,47.4140768888421,8.96914152691967
0.0,0.0,0.0,0.0,0.0,0.0,Fisibach,47.5622653224036,8.40729722221172
1.0,1.0,0.0,1.0,1.0,1.0,Fislisbach,47.436347491028,8.29232333146077
0.0,0.0,0.0,0.0,0.0,0.0,Flaach,47.5757029175798,8.60825141098456
0.0,-0.0,0.0,0.0,0.0,0.0,Fläsch,47.0258805539962,9.51332930082086
2.0,1.0,1.0,1.0,1.0,1.0,Flawil,47.4127935869378,9.18645311535873
0.0,-0.0,0.0,0.0,0.0,0.0,Flerden,46.7029044725445,9.40804190247973
0.0,0.0,0.0,0.0,0.0,0.0,Flims,46.8372415174594,9.2844576110158
1.0,0.0,0.0,0.0,0.0,0.0,Flüelen,46.9053605961409,8.62517344695495
0.0,0.0,0.0,0.0,0.0,0.0,Flühli,46.8830660337026,8.0158969569223
0.0,0.0,0.0,0.0,0.0,0.0,Flumenthal,47.2361101057554,7.59974357267436
0.0,1.0,0.0,1.0,1.0,1.0,Flums,47.0918353635522,9.34197544754893
0.0,0.0,0.0,0.0,0.0,0.0,Flurlingen,47.6825237037962,8.62925619430886
0.0,-0.0,0.0,0.0,0.0,0.0,Fontaines-sur-Grandson,46.8347985573365,6.61938647565069
0.0,0.0,0.0,0.0,0.0,0.0,Fontenais,47.4029604468736,7.08093715243288
0.0,0.0,0.0,0.0,0.0,0.0,Forel (Lavaux),46.540717206708,6.76986027306327
0.0,0.0,0.0,0.0,0.0,0.0,Forst-Längenbühl,46.7639505377548,7.52241498763847
0.0,0.0,0.0,1.0,0.0,0.0,Founex,46.3334267921546,6.19316429652243
0.0,-0.0,0.0,0.0,0.0,0.0,Fräschels,46.9976246774123,7.2085497659557
0.0,0.0,1.0,0.0,0.0,0.0,Fraubrunnen,47.0859775275824,7.52422997658368
7.0,4.0,5.0,4.0,3.0,4.0,Frauenfeld,47.5571651563865,8.89486339626485
0.0,0.0,0.0,0.0,0.0,0.0,Frauenkappelen,46.9546354442034,7.3374775976417
2.0,3.0,1.0,3.0,2.0,2.0,Freienbach,47.2014643686954,8.77693665404616
0.0,0.0,0.0,0.0,0.0,0.0,Freienstein-Teufen,47.5309648138174,8.5846889805446
0.0,-0.0,0.0,0.0,0.0,0.0,Freienwil,47.5035487572218,8.3265858297599
0.0,-0.0,0.0,0.0,0.0,0.0,Freimettigen,46.8672727839172,7.6274994914433
1.0,1.0,0.0,1.0,1.0,1.0,Frenkendorf,47.5030209396919,7.7160200536699
6.0,5.0,4.0,4.0,4.0,4.0,Fribourg,46.803190906878,7.1491237004268
1.0,1.0,1.0,1.0,1.0,1.0,Frick,47.5072850454044,8.02134084405808
0.0,0.0,0.0,0.0,0.0,0.0,Froideville,46.6004450498968,6.68298062912153
1.0,1.0,1.0,1.0,1.0,1.0,Frutigen,46.5883785170672,7.64740670467601
0.0,0.0,0.0,0.0,0.0,0.0,Fulenbach,47.2751186237853,7.83510504620456
0.0,0.0,0.0,0.0,0.0,0.0,Full-Reuenthal,47.6123573057498,8.20337986940348
4.0,1.0,1.0,1.0,1.0,1.0,Füllinsdorf,47.5056866133737,7.72930725751444
1.0,1.0,1.0,1.0,1.0,1.0,Fully,46.1383178110258,7.11384606168777
0.0,-0.0,0.0,0.0,0.0,0.0,Furna,46.9372937258325,9.67807083779448
0.0,0.0,0.0,0.0,0.0,0.0,Fürstenau,46.7211275440066,9.44665169023136
0.0,-0.0,0.0,0.0,0.0,0.0,Gächlingen,47.7035588740573,8.50048403597423
0.0,0.0,0.0,0.0,0.0,0.0,Gachnang,47.537892323953,8.85315621250013
0.0,0.0,0.0,0.0,0.0,0.0,Gais,47.3625578577282,9.45360546120131
5.0,1.0,1.0,1.0,1.0,1.0,Gaiserwald,47.4248188156782,9.33664788459441
0.0,0.0,0.0,0.0,0.0,0.0,Galgenen,47.1823012634113,8.87410016303155
0.0,0.0,0.0,0.0,0.0,0.0,Gals,47.0277808552305,7.05055958747886
1.0,1.0,1.0,1.0,1.0,1.0,Gambarogno,46.147870721204,8.8572217830282
1.0,0.0,0.0,0.0,0.0,0.0,Gampel-Bratsch,46.3155960887024,7.74243374203782
0.0,0.0,0.0,0.0,0.0,0.0,Gampelen,47.0143149377078,7.05854833810137
0.0,0.0,0.0,0.0,0.0,0.0,Gams,47.204398964898,9.44236176448918
0.0,-0.0,0.0,0.0,0.0,0.0,Gansingen,47.542636646167,8.13463311762708
1.0,1.0,0.0,1.0,1.0,1.0,Gebenstorf,47.4798772547904,8.24260508545387
1.0,1.0,1.0,1.0,1.0,1.0,Gelterkinden,47.4639306273948,7.85507781520064
0.0,-0.0,0.0,0.0,0.0,0.0,Geltwil,47.2490177396469,8.32367755936524
0.0,-0.0,0.0,0.0,0.0,0.0,Gempen,47.4752622273622,7.65883317037921
12.0,24.0,16.0,14.0,9.0,16.0,Genève,46.2051076293365,6.1429756618772
0.0,0.0,0.0,0.0,0.0,0.0,Genolier,46.4344487202922,6.21686633263976
0.0,1.0,0.0,0.0,0.0,0.0,Genthod,46.2655329109226,6.15580413428452
1.0,2.0,1.0,1.0,1.0,1.0,Gerlafingen,47.1704842310027,7.57184789052052
1.0,1.0,0.0,1.0,1.0,1.0,Geroldswil,47.4201167009583,8.41133835775194
0.0,0.0,0.0,0.0,0.0,0.0,Gersau,46.9918092594758,8.5258484607774
0.0,-0.0,0.0,0.0,0.0,0.0,Gerzensee,46.8394920842347,7.54612728483001
0.0,0.0,0.0,0.0,0.0,0.0,Geuensee,47.1983025895127,8.10771854612002
0.0,1.0,1.0,1.0,1.0,1.0,Gibloux,46.7210894698657,7.06585267242155
0.0,0.0,0.0,0.0,0.0,0.0,Giebenach,47.5227338231678,7.7453333811541
0.0,-0.0,0.0,0.0,0.0,0.0,Giez,46.8114025024789,6.61843269443223
0.0,0.0,0.0,0.0,0.0,0.0,Giffers,46.7610527661062,7.21087322904792
0.0,0.0,0.0,0.0,0.0,0.0,Gilly,46.4577764603285,6.29705154735521
0.0,0.0,0.0,0.0,0.0,0.0,Gimel,46.5091635511693,6.30769414444516
0.0,-0.0,0.0,0.0,0.0,0.0,Gingins,46.4088366438524,6.17842457046109
0.0,0.0,0.0,0.0,0.0,0.0,Giornico,46.4022409404213,8.87687655572705
0.0,0.0,1.0,0.0,0.0,0.0,Gipf-Oberfrick,47.4974839684497,8.00265336340402
0.0,0.0,0.0,0.0,0.0,0.0,Gisikon,47.1269733269291,8.39942422909134
0.0,0.0,0.0,0.0,0.0,0.0,Giswil,46.8388951349843,8.18715424409168
2.0,1.0,1.0,2.0,1.0,1.0,Givisiez,46.8139371344872,7.13072186543033
0.0,-0.0,0.0,0.0,0.0,0.0,Givrins,46.4288826043041,6.20137844749424
4.0,2.0,1.0,2.0,1.0,2.0,Gland,46.4205526582741,6.2640125301411
3.0,2.0,2.0,2.0,1.0,2.0,Glarus,47.0411901638921,9.06641758700163
2.0,2.0,2.0,3.0,2.0,2.0,Glarus Nord,47.0997380331583,9.06160909067338
0.0,1.0,1.0,1.0,1.0,1.0,Glarus Süd,46.994313776638,9.07288560833441
0.0,1.0,1.0,0.0,1.0,1.0,Glattfelden,47.5578416066078,8.501557064417
0.0,0.0,0.0,0.0,0.0,0.0,Gletterens,46.8951094218923,6.93735287533314
2.0,2.0,1.0,1.0,1.0,1.0,Goldach,47.4730096758209,9.46575231490469
0.0,-0.0,0.0,0.0,0.0,0.0,Gollion,46.5856549599484,6.5083433866013
0.0,0.0,1.0,0.0,0.0,0.0,Gommiswald,47.2307232904942,9.0233232100275
0.0,0.0,0.0,0.0,0.0,0.0,Goms,46.4866205924201,8.26434313087401
0.0,-0.0,0.0,0.0,0.0,0.0,Gondiswil,47.1463589120701,7.8723873325509
0.0,0.0,0.0,0.0,0.0,0.0,Gonten,47.3282811456934,9.35306123530402
0.0,0.0,0.0,0.0,0.0,0.0,Gontenschwil,47.27094356041,8.14430952430251
0.0,1.0,0.0,1.0,1.0,1.0,Gordola,46.1819831448184,8.86329102367342
0.0,0.0,0.0,0.0,0.0,0.0,Göschenen,46.6673438384051,8.58727362880163
4.0,3.0,2.0,3.0,2.0,2.0,Gossau (SG),47.4154525160534,9.24750937699405
1.0,1.0,1.0,1.0,1.0,1.0,Gossau (ZH),47.3069596561843,8.7557762198418
0.0,0.0,0.0,0.0,0.0,0.0,Gottlieben,47.6636479303607,9.13480545146519
0.0,-0.0,0.0,0.0,0.0,0.0,Goumoëns,46.6583649005826,6.60377540149014
0.0,-0.0,0.0,0.0,0.0,0.0,Graben,47.2169915673782,7.71982046646429
1.0,1.0,1.0,1.0,1.0,1.0,Grabs,47.1827957521998,9.44287196728344
0.0,0.0,0.0,0.0,0.0,0.0,Grächen,46.1947541848909,7.83891492450665
3.0,2.0,0.0,1.0,0.0,1.0,Grancia,45.9679069619322,8.92867711121773
0.0,-0.0,0.0,0.0,0.0,0.0,Grancy,46.5924901416592,6.46516084496706
0.0,-0.0,1.0,0.0,0.0,0.0,Grandcour,46.8716873663468,6.92970145858571
0.0,-0.0,0.0,0.0,0.0,0.0,Grandevent,46.8383016574146,6.60622377114964
0.0,0.0,0.0,0.0,0.0,0.0,Grandfontaine,47.3916404050684,6.9392918026539
0.0,1.0,0.0,1.0,0.0,0.0,Grandson,46.8079899356156,6.64468853609017
0.0,-0.0,0.0,0.0,0.0,0.0,Grandval,47.2829923699472,7.42540873850392
0.0,-0.0,0.0,0.0,0.0,0.0,Grandvillard,46.5385446474798,7.08666782283096
0.0,0.0,0.0,0.0,0.0,0.0,Granges (Veveyse),46.5248632780883,6.83000871641486
3.0,1.0,0.0,1.0,1.0,1.0,Granges-Paccot,46.8247627632706,7.1424545762455
0.0,-0.0,0.0,0.0,0.0,0.0,Grangettes,46.6775154249331,6.96028973154773
1.0,1.0,1.0,1.0,1.0,1.0,Gränichen,47.3575529970114,8.10044992293776
0.0,1.0,0.0,1.0,1.0,1.0,Gravesano,46.0418437729256,8.91648239017811
1.0,1.0,1.0,1.0,1.0,1.0,Greifensee,47.365394965315,8.67777995646708
0.0,1.0,0.0,0.0,0.0,0.0,Grellingen,47.4420962641787,7.58843211068549
4.0,2.0,2.0,2.0,2.0,2.0,Grenchen,47.1930385373133,7.39508272256407
0.0,-0.0,0.0,0.0,0.0,0.0,Greng,46.9109842331686,7.09472259574964
0.0,0.0,0.0,0.0,0.0,0.0,Grengiols,46.3725844836234,8.09365311140149
0.0,-0.0,0.0,0.0,0.0,0.0,Grens,46.3936756193027,6.19047959809158
0.0,0.0,0.0,0.0,0.0,0.0,Greppen,47.0547510580682,8.42972057894997
0.0,1.0,0.0,0.0,0.0,0.0,Gretzenbach,47.357198742377,7.99719966110393
0.0,1.0,0.0,0.0,0.0,0.0,Grimisuat,46.2602150840776,7.38417378868535
0.0,0.0,0.0,0.0,0.0,0.0,Grindel,47.3810149288355,7.50218722717932
1.0,1.0,1.0,0.0,1.0,1.0,Grindelwald,46.6247903274999,8.03533839418455
0.0,0.0,0.0,0.0,0.0,0.0,Grolley,46.8335477727383,7.07031457334945
0.0,0.0,0.0,0.0,0.0,0.0,Grône,46.2512318617432,7.45550187843853
0.0,0.0,0.0,1.0,0.0,0.0,Grono,46.2481988263191,9.14904550212468
0.0,0.0,0.0,0.0,0.0,0.0,Grossaffoltern,47.0661929051664,7.36096079697683
0.0,-0.0,0.0,0.0,0.0,0.0,Grossdietwil,47.1705888876237,7.88709274423379
0.0,0.0,1.0,1.0,1.0,1.0,Grosshöchstetten,46.9068341173304,7.6381381341047
0.0,0.0,0.0,0.0,0.0,0.0,Grosswangen,47.1329653667536,8.04890529329117
0.0,0.0,0.0,0.0,0.0,0.0,Grub (AR),47.4488346052151,9.50992726987058
0.0,0.0,0.0,0.0,0.0,0.0,Grüningen,47.2843858521208,8.76315130411946
0.0,0.0,0.0,0.0,0.0,0.0,Grüsch,46.9810904428806,9.64702620023756
1.0,0.0,0.0,0.0,0.0,0.0,Gruyères,46.5835098651853,7.08246018958033
0.0,0.0,0.0,0.0,0.0,0.0,Gryon,46.2739926681727,7.06243989031498
0.0,-0.0,0.0,0.0,0.0,0.0,Gsteig,46.3851364933619,7.26705429718505
0.0,0.0,0.0,0.0,0.0,0.0,Gsteigwiler,46.6543079338862,7.87366807577936
0.0,0.0,0.0,0.0,0.0,0.0,Guggisberg,46.7675249635577,7.32866834530294
0.0,0.0,0.0,0.0,0.0,0.0,Gündlischwand,46.6325629023761,7.91266990352735
0.0,0.0,0.0,0.0,0.0,0.0,Günsberg,47.257726166455,7.57734872852522
0.0,1.0,0.0,0.0,0.0,0.0,Gunzgen,47.3156157296041,7.82879241367148
0.0,0.0,0.0,0.0,0.0,0.0,Gurbrü,46.9643559293907,7.21526268380235
0.0,0.0,1.0,0.0,0.0,0.0,Gurmels,46.8932010940187,7.17225694848177
0.0,0.0,0.0,0.0,0.0,0.0,Gurtnellen,46.7388840101814,8.62936312758982
0.0,-0.0,0.0,0.0,0.0,0.0,Gurzelen,46.7801341695076,7.53291541746365
0.0,0.0,0.0,0.0,0.0,0.0,Guttannen,46.6564541411305,8.29045519327321
0.0,-0.0,0.0,0.0,0.0,0.0,Guttet-Feschel,46.3247709088079,7.66587514723582
0.0,0.0,0.0,0.0,0.0,0.0,Güttingen,47.603747753377,9.2871835276433
0.0,-0.0,0.0,0.0,0.0,0.0,Gy,46.2522451918217,6.2572756313181
0.0,-0.0,0.0,0.0,0.0,0.0,Habkern,46.7263102525221,7.86378263379614
0.0,-0.0,0.0,0.0,0.0,0.0,Habsburg,47.4622721659723,8.18530807575325
0.0,-0.0,0.0,0.0,0.0,0.0,Häfelfingen,47.4144204551739,7.86661688875114
0.0,0.0,0.0,0.0,0.0,0.0,Hagenbuch,47.5212629384525,8.88856777023894
1.0,1.0,1.0,1.0,1.0,1.0,Hägendorf,47.3353577211992,7.84216757508423
0.0,0.0,0.0,0.0,0.0,0.0,Häggenschwil,47.4940086947139,9.34177321159671
0.0,0.0,0.0,0.0,0.0,0.0,Hägglingen,47.3871502726615,8.25445096433099
0.0,0.0,0.0,0.0,0.0,0.0,Hagneck,47.0569473115875,7.18723455357478
0.0,0.0,0.0,0.0,0.0,0.0,Hallau,47.6967464929191,8.45771605405933
0.0,0.0,0.0,0.0,0.0,0.0,Hallwil,47.3292149732556,8.17550859001771
0.0,0.0,0.0,0.0,0.0,0.0,Halten,47.1695439825717,7.60350112447841
0.0,1.0,1.0,0.0,0.0,0.0,Härkingen,47.3093549404674,7.81816709068356
0.0,0.0,0.0,0.0,0.0,0.0,Hasle (LU),46.98003422969,8.0511117378083
1.0,0.0,0.0,0.0,0.0,0.0,Hasle bei Burgdorf,47.0165436531676,7.65564221014567
0.0,0.0,0.0,0.0,0.0,0.0,Hasliberg,46.749912990378,8.17544979508378
0.0,0.0,0.0,0.0,0.0,0.0,Hauenstein-Ifenthal,47.3739858408285,7.85570021120972
0.0,0.0,0.0,0.0,0.0,0.0,Hauptwil-Gottshaus,47.4931556633121,9.28333762384252
0.0,1.0,1.0,1.0,1.0,1.0,Hausen (AG),47.4620980127915,8.21183158373044
0.0,0.0,0.0,0.0,0.0,0.0,Hausen am Albis,47.2436161076331,8.53361347397169
0.0,0.0,0.0,0.0,0.0,0.0,Haut-Intyamon,46.5177535399782,7.05552877724
0.0,0.0,0.0,0.0,0.0,0.0,Haute-Ajoie,47.3918933640348,7.00154143923976
0.0,1.0,1.0,1.0,1.0,1.0,Haute-Sorne,47.3376958362664,7.24544684258826
0.0,0.0,0.0,0.0,0.0,0.0,Hautemorges,46.5525824102771,6.42806271179773
0.0,1.0,0.0,0.0,0.0,0.0,Hauterive (FR),46.7607636816038,7.09568414002065
2.0,1.0,0.0,0.0,1.0,0.0,Hauterive (NE),47.0139935678519,6.97174925341166
0.0,-0.0,0.0,0.0,0.0,0.0,Hauteville,46.6699489944564,7.10933062950475
0.0,-0.0,0.0,0.0,0.0,0.0,Häutligen,46.8574124698187,7.60517248328973
0.0,1.0,0.0,0.0,0.0,0.0,Hedingen,47.2974631651185,8.44877101137667
0.0,0.0,0.0,0.0,0.0,0.0,Hefenhofen,47.5648734713459,9.2991215252372
1.0,1.0,1.0,1.0,1.0,1.0,Heiden,47.4439093071147,9.53360797001019
0.0,-0.0,0.0,0.0,0.0,0.0,Heiligenschwendi,46.749319042493,7.68728839809302
1.0,1.0,1.0,1.0,1.0,1.0,Heimberg,46.7935436989867,7.60628581244009
0.0,0.0,0.0,0.0,0.0,0.0,Heimenhausen,47.2098423949303,7.69998323586983
0.0,0.0,0.0,0.0,0.0,0.0,Heimiswil,47.0651090707437,7.65978731983568
0.0,-0.0,0.0,0.0,0.0,0.0,Heitenried,46.8268626819957,7.29971320302948
0.0,-0.0,0.0,0.0,0.0,0.0,Hellikon,47.5095304049762,7.92446149952015
0.0,-0.0,0.0,0.0,0.0,0.0,Hellsau,47.1460849385785,7.64825499557163
0.0,-0.0,0.0,0.0,0.0,0.0,Hemberg,47.3005125139284,9.17483985133218
0.0,0.0,0.0,0.0,0.0,0.0,Hemishofen,47.6766763116158,8.83155688225396
0.0,-0.0,0.0,0.0,0.0,0.0,Hemmiken,47.4880745337075,7.8924199405414
0.0,0.0,0.0,1.0,0.0,0.0,Hendschiken,47.3865066667613,8.21735729975731
0.0,0.0,0.0,0.0,0.0,0.0,Henggart,47.5623387676863,8.68237535170432
0.0,0.0,0.0,0.0,0.0,0.0,Henniez,46.7419369749066,6.88382130964226
0.0,-0.0,0.0,0.0,0.0,0.0,Herbetswil,47.296384178921,7.59199185938369
0.0,0.0,0.0,0.0,0.0,0.0,Herbligen,46.828625546782,7.60639449599037
0.0,-0.0,0.0,0.0,0.0,0.0,Herdern,47.604655329808,8.9094672613402
0.0,0.0,0.0,0.0,0.0,0.0,Hérémence,46.1801626460185,7.40497554481029
1.0,1.0,1.0,1.0,1.0,1.0,Hergiswil (NW),46.9873440439463,8.31147777747898
0.0,0.0,0.0,0.0,0.0,0.0,Hergiswil bei Willisau,47.0848403912376,7.95748976270975
3.0,2.0,2.0,2.0,1.0,2.0,Herisau,47.3889167138277,9.27575316055188
0.0,0.0,0.0,0.0,0.0,0.0,Hermance,46.3015926726106,6.2445192712311
0.0,-0.0,0.0,0.0,0.0,0.0,Hermenches,46.6414095542262,6.75946852169704
0.0,-0.0,0.0,0.0,0.0,0.0,Hermrigen,47.0813441784354,7.24374253249166
0.0,0.0,0.0,1.0,1.0,0.0,Herrliberg,47.2842329517621,8.6111196197916
0.0,0.0,0.0,0.0,0.0,0.0,Hersberg,47.4920468709827,7.783639705318
0.0,0.0,0.0,0.0,0.0,0.0,Herznach,47.4720452699096,8.05279173902128
1.0,1.0,2.0,1.0,1.0,1.0,Herzogenbuchsee,47.1873437122193,7.70515133066705
0.0,0.0,0.0,0.0,0.0,0.0,Hettlingen,47.5458785800666,8.70723142250975
0.0,0.0,1.0,0.0,0.0,0.0,Hildisrieden,47.1507539882793,8.22975187783146
2.0,1.0,1.0,1.0,1.0,1.0,Hilterfingen,46.7457992832303,7.64801372197217
0.0,0.0,0.0,0.0,0.0,0.0,Himmelried,47.4213976214149,7.59765083159491
0.0,0.0,0.0,0.0,0.0,0.0,Hindelbank,47.0418882852133,7.54126625133255
3.0,2.0,2.0,2.0,1.0,2.0,Hinwil,47.3005021367634,8.84554118057685
0.0,0.0,0.0,0.0,0.0,0.0,Hirschthal,47.3218327456756,8.05370945218677
1.0,0.0,0.0,0.0,0.0,0.0,Hittnau,47.3646082758567,8.82604901307627
1.0,1.0,0.0,1.0,1.0,1.0,Hitzkirch,47.2251746624744,8.26386343885294
1.0,1.0,1.0,1.0,1.0,1.0,Hochdorf,47.1683192215736,8.28936738684596
0.0,0.0,0.0,0.0,0.0,0.0,Hochfelden,47.5226219659639,8.51678718768544
0.0,-0.0,0.0,0.0,0.0,0.0,Höchstetten,47.1425146601873,7.6324212619127
0.0,-0.0,0.0,0.0,0.0,0.0,Hochwald,47.4564085982819,7.64019003461845
0.0,0.0,0.0,0.0,0.0,0.0,Hofstetten bei Brienz,46.7541165461035,8.07472485148194
0.0,0.0,0.0,0.0,0.0,0.0,Hofstetten-Flüh,47.4754450616683,7.51556411286502
0.0,0.0,0.0,0.0,0.0,0.0,Hohenrain,47.1806929712825,8.31858947454881
0.0,0.0,0.0,0.0,0.0,0.0,Hohentannen,47.5093775301557,9.2241511064014
1.0,1.0,0.0,0.0,0.0,0.0,Holderbank (AG),47.4263990176715,8.16890038425637
0.0,-0.0,0.0,0.0,0.0,0.0,Holderbank (SO),47.3329276150692,7.75615189926735
0.0,0.0,0.0,0.0,0.0,0.0,Hölstein,47.4246310005216,7.76995060126124
0.0,0.0,0.0,0.0,0.0,0.0,Holziken,47.3219230512979,8.03651424178383
0.0,-0.0,0.0,0.0,0.0,0.0,Homberg,46.7754112607922,7.68478969920564
1.0,1.0,1.0,1.0,1.0,1.0,Hombrechtikon,47.251964566265,8.76631101616669
0.0,0.0,0.0,0.0,0.0,0.0,Homburg,47.6339557127999,9.00742736633012
0.0,-0.0,0.0,0.0,0.0,0.0,Honau,47.1332139982,8.40612710660334
2.0,3.0,4.0,3.0,2.0,3.0,Horgen,47.2591713774027,8.59867745976926
0.0,0.0,1.0,1.0,0.0,0.0,Höri,47.507407721748,8.50851371511699
0.0,1.0,1.0,1.0,0.0,1.0,Horn,47.4946575455139,9.46259543637492
0.0,-0.0,0.0,0.0,0.0,0.0,Horrenbach-Buchen,46.7806418627083,7.75290561743603
0.0,0.0,0.0,0.0,0.0,0.0,Horriwil,47.1812051019168,7.62464520845937
3.0,1.0,2.0,2.0,1.0,2.0,Horw,47.0188349000839,8.31067450250938
0.0,-0.0,0.0,0.0,0.0,0.0,Hospental,46.6189559431117,8.56796619741474
0.0,-0.0,0.0,0.0,0.0,0.0,Hubersdorf,47.2469178296783,7.58920885449143
0.0,-0.0,0.0,0.0,0.0,0.0,Humlikon,47.576854542102,8.67075199770443
0.0,-0.0,0.0,0.0,0.0,0.0,Hundwil,47.3648351378445,9.31862104399297
0.0,1.0,2.0,1.0,1.0,1.0,Hünenberg,47.1735193521117,8.42664349471974
0.0,-0.0,0.0,0.0,0.0,0.0,Hüniken,47.1847855168937,7.6352124801804
0.0,0.0,0.0,0.0,0.0,0.0,Hüntwangen,47.5957084899874,8.49167781168826
1.0,1.0,0.0,1.0,1.0,1.0,Hunzenschwil,47.3870940115063,8.12465608262137
0.0,-0.0,0.0,0.0,0.0,0.0,Hüttikon,47.4455073889883,8.38660978583187
0.0,-0.0,0.0,0.0,0.0,0.0,Hüttlingen,47.5776462634479,8.98050469083309
1.0,1.0,1.0,1.0,1.0,1.0,Huttwil,47.1140648279393,7.84840882690301
0.0,0.0,0.0,0.0,0.0,0.0,Hüttwilen,47.6069362570395,8.87095802845868
0.0,0.0,0.0,0.0,0.0,0.0,Icogne,46.2908137714134,7.43864406278175
0.0,0.0,0.0,0.0,0.0,0.0,Iffwil,47.0635144396706,7.47943794189882
1.0,1.0,1.0,1.0,1.0,1.0,Ilanz/Glion,46.774612927005,9.20504255965588
0.0,-0.0,0.0,0.0,0.0,0.0,Illgau,46.9879421715568,8.72559937382589
3.0,2.0,1.0,2.0,1.0,2.0,Illnau-Effretikon,47.4273615699566,8.6871753720126
0.0,0.0,0.0,0.0,0.0,0.0,Inden,46.3446470787243,7.61789702808788
1.0,1.0,2.0,1.0,1.0,1.0,Ingenbohl,46.9990889271332,8.60883609430083
0.0,0.0,0.0,0.0,0.0,0.0,Inkwil,47.2018092763833,7.67090888112105
0.0,-0.0,0.0,0.0,0.0,0.0,Innerthal,47.1061562022007,8.91949476842264
0.0,0.0,0.0,0.0,0.0,0.0,Innertkirchen,46.7054786247634,8.22845885066921
1.0,0.0,0.0,0.0,1.0,0.0,Ins,47.0063632178574,7.10462912792535
3.0,1.0,1.0,2.0,1.0,1.0,Interlaken,46.683156618102,7.85690774354951
2.0,0.0,0.0,0.0,0.0,0.0,Inwil,47.1228732750656,8.35058754811164
2.0,1.0,1.0,1.0,0.0,1.0,Ipsach,47.1164080984121,7.23439050409915
0.0,-0.0,0.0,0.0,0.0,0.0,Iseltwald,46.7096994240419,7.96434916544361
0.0,0.0,0.0,0.0,0.0,0.0,Isenthal,46.9105062245918,8.56096169737689
0.0,0.0,0.0,0.0,0.0,0.0,Isérables,46.1620080711426,7.24445831842656
0.0,-0.0,0.0,0.0,0.0,0.0,Islisberg,47.3227262181236,8.43998915090564
0.0,-0.0,0.0,0.0,0.0,0.0,Isone,46.1290817982265,8.98613693384511
0.0,0.0,0.0,0.0,0.0,0.0,Itingen,47.466860044329,7.78480304896069
5.0,2.0,2.0,3.0,2.0,2.0,Ittigen,46.9753628889042,7.47937247059436
0.0,0.0,0.0,0.0,0.0,0.0,Jaberg,46.8169792936607,7.56966883502243
0.0,-0.0,0.0,0.0,0.0,0.0,Jaun,46.6109427359805,7.2780813401129
1.0,1.0,1.0,1.0,1.0,1.0,Jegenstorf,47.048210786034,7.50574641900137
0.0,0.0,0.0,0.0,0.0,0.0,Jenaz,46.9293495422517,9.71583470422384
0.0,0.0,0.0,0.0,0.0,0.0,Jenins,47.0017087559031,9.55580024218385
0.0,-0.0,0.0,0.0,0.0,0.0,Jens,47.0975649804683,7.26212413302065
0.0,0.0,0.0,0.0,0.0,0.0,Jonen,47.2961372438615,8.39321296216289
0.0,0.0,0.0,0.0,0.0,0.0,Jongny,46.479955719842,6.84353637646555
0.0,0.0,0.0,0.0,0.0,0.0,Jonschwil,47.4241449907606,9.08740589960346
0.0,-0.0,0.0,0.0,0.0,0.0,Jorat-Menthue,46.6257684560505,6.70351806706633
1.0,0.0,0.0,0.0,0.0,0.0,Jorat-Mézières,46.6055212444624,6.77558335584175
0.0,1.0,0.0,0.0,0.0,0.0,Jouxtens-Mézery,46.5521753343923,6.59889635212203
0.0,-0.0,0.0,0.0,0.0,0.0,Juriens,46.6913092456543,6.44899466912925
0.0,-0.0,0.0,0.0,0.0,0.0,Jussy,46.2343371095485,6.26544355698958
0.0,1.0,1.0,1.0,1.0,1.0,Kaiseraugst,47.5407754550794,7.7241858968167
0.0,0.0,0.0,0.0,0.0,0.0,Kaisten,47.5395461868492,8.04427391871475
0.0,-0.0,0.0,0.0,0.0,0.0,Kallern,47.316701690534,8.29437775836896
0.0,0.0,0.0,0.0,0.0,0.0,Kallnach,47.0201646283323,7.23607414359224
1.0,0.0,1.0,0.0,0.0,0.0,Kaltbrunn,47.2135823817373,9.02677599166915
0.0,-0.0,0.0,0.0,0.0,0.0,Kammersrohr,47.2541082877668,7.59319224199827
0.0,0.0,0.0,0.0,0.0,0.0,Kandergrund,46.5460698072042,7.66288954645005
0.0,0.0,0.0,0.0,0.0,0.0,Kandersteg,46.4947715277709,7.67440094409945
0.0,0.0,0.0,0.0,0.0,0.0,Känerkinden,47.4118308968262,7.83612106429607
1.0,0.0,0.0,0.0,0.0,0.0,Kappel (SO),47.3236419008529,7.84869314470791
0.0,-0.0,0.0,0.0,0.0,0.0,Kappel am Albis,47.2274899198429,8.52668042898412
0.0,-0.0,0.0,0.0,0.0,0.0,Kappelen,47.0597943095802,7.26751435893679
0.0,0.0,0.0,0.0,0.0,0.0,Kaufdorf,46.8386267923293,7.49893434225176
1.0,0.0,1.0,0.0,1.0,0.0,Kehrsatz,46.9097005211308,7.47144824615821
0.0,0.0,0.0,0.0,0.0,0.0,Kemmental,47.5991614188494,9.11545408865544
0.0,0.0,0.0,0.0,0.0,0.0,Kernenried,47.0688684481459,7.54658346791026
0.0,1.0,1.0,1.0,1.0,1.0,Kerns,46.9012598039305,8.27464429901556
1.0,1.0,1.0,1.0,1.0,1.0,Kerzers,46.9742130239462,7.1968228994546
0.0,0.0,0.0,0.0,0.0,0.0,Kesswil,47.5933662459778,9.31740929651611
0.0,0.0,0.0,0.0,0.0,0.0,Kestenholz,47.2816633151504,7.75452592598746
0.0,-0.0,0.0,0.0,0.0,0.0,Kienberg,47.43919324175,7.96624250929291
0.0,0.0,0.0,0.0,0.0,0.0,Kiesen,46.8196622188198,7.58277938355945
0.0,0.0,0.0,0.0,0.0,0.0,Kilchberg (BL),47.4259906828226,7.89851833693432
1.0,1.0,1.0,2.0,1.0,1.0,Kilchberg (ZH),47.3173007780108,8.54173929841444
0.0,0.0,0.0,0.0,0.0,0.0,Killwangen,47.4322840277057,8.35323472673882
0.0,-0.0,0.0,0.0,0.0,0.0,Kippel,46.3991709361306,7.77280642071774
1.0,1.0,1.0,1.0,1.0,1.0,Kirchberg (BE),47.0841195492537,7.583486495001
0.0,1.0,1.0,1.0,1.0,1.0,Kirchberg (SG),47.4113272350377,9.03929989037005
0.0,0.0,0.0,0.0,0.0,0.0,Kirchdorf (BE),46.8205981421783,7.55002116071399
0.0,0.0,0.0,0.0,0.0,0.0,Kirchleerau,47.2758840824549,8.06771875159578
0.0,0.0,0.0,0.0,0.0,0.0,Kirchlindach,47.0005534798467,7.41496480685721
0.0,0.0,0.0,0.0,0.0,0.0,Kleinandelfingen,47.5992079937951,8.68323947041509
0.0,0.0,0.0,0.0,0.0,0.0,Kleinbösingen,46.8941725811366,7.20505780611708
0.0,0.0,0.0,0.0,0.0,0.0,Kleinlützel,47.4260006393095,7.41741857697545
0.0,1.0,0.0,0.0,0.0,0.0,Klingnau,47.5787295307608,8.25473522668458
0.0,0.0,0.0,1.0,1.0,0.0,Klosters,46.8755914821739,9.87891597500968
1.0,6.0,5.0,6.0,4.0,5.0,Kloten,47.4518268037873,8.58298479307106
0.0,0.0,0.0,0.0,0.0,0.0,Knonau,47.224485234464,8.46191694160004
0.0,0.0,0.0,0.0,0.0,0.0,Knutwil,47.1994034771586,8.07209875540332
0.0,1.0,0.0,0.0,0.0,0.0,Koblenz,47.6067650104117,8.23255754764637
2.0,1.0,1.0,1.0,1.0,1.0,Kölliken,47.3354886600309,8.02211182114366
6.0,5.0,5.0,3.0,2.0,4.0,Köniz,46.9258939938601,7.41631201871581
1.0,1.0,1.0,1.0,1.0,1.0,Konolfingen,46.8789772129677,7.62098113173762
0.0,0.0,0.0,0.0,0.0,0.0,Koppigen,47.1326653784404,7.60338814497005
0.0,0.0,0.0,0.0,0.0,0.0,Kradolf-Schönenberg,47.5268476265749,9.19950264192565
0.0,0.0,0.0,0.0,0.0,0.0,Krattigen,46.6619681213576,7.72739157850573
0.0,0.0,0.0,0.0,0.0,0.0,Krauchthal,47.0094812819014,7.56619064933435
3.0,3.0,4.0,3.0,2.0,3.0,Kreuzlingen,47.6469332748592,9.17021235576837
0.0,-0.0,0.0,0.0,0.0,0.0,Kriechenwil,46.9113070549319,7.22729797936315
0.0,0.0,0.0,0.0,0.0,0.0,Kriegstetten,47.1758495117403,7.59692476941581
5.0,2.0,3.0,4.0,3.0,3.0,Kriens,47.0343707360061,8.2780336987513
0.0,0.0,0.0,0.0,0.0,0.0,Küblis,46.9146457967655,9.7756229630486
0.0,0.0,0.0,0.0,0.0,0.0,Künten,47.3892908478308,8.32998026466987
2.0,2.0,0.0,2.0,2.0,2.0,Küsnacht (ZH),47.3168884034481,8.5840590603785
1.0,2.0,2.0,2.0,2.0,2.0,Küssnacht (SZ),47.0825418273042,8.44076993664339
0.0,1.0,0.0,1.0,1.0,1.0,Küttigen,47.4154054145991,8.04816372379464
0.0,0.0,0.0,0.0,0.0,0.0,L'Abbaye,46.6230655129619,6.27266294593318
0.0,-0.0,0.0,0.0,0.0,0.0,L'Abergement,46.7546288245806,6.48971614674605
0.0,0.0,0.0,0.0,0.0,0.0,L'Isle,46.6136066937258,6.41125393463867
0.0,0.0,0.0,0.0,0.0,0.0,La Baroche,47.423067125661,7.20537729941777
0.0,-0.0,0.0,0.0,0.0,0.0,La Brévine,46.9804374961159,6.60664510613659
0.0,0.0,0.0,0.0,0.0,0.0,La Brillaz,46.7586516452315,7.00407204917568
0.0,-0.0,0.0,0.0,0.0,0.0,La Chaux (Cossonay),46.6177425871355,6.47253898383864
1.0,6.0,4.0,5.0,3.0,4.0,La Chaux-de-Fonds,47.1014531127746,6.82476105678409
0.0,-0.0,0.0,0.0,0.0,0.0,La Chaux-des-Breuleux,47.2228932141175,7.02801358261335
0.0,-0.0,0.0,0.0,0.0,0.0,La Chaux-du-Milieu,47.0134758235814,6.70214198772801
0.0,-0.0,0.0,0.0,0.0,0.0,La Côte-aux-Fées,46.8661850421335,6.49036886201821
0.0,-0.0,0.0,0.0,0.0,0.0,La Ferrière,47.140482709734,6.89418232399403
0.0,1.0,2.0,1.0,1.0,1.0,La Grande Béroche,46.930488221547,6.81489980749083
1.0,1.0,0.0,1.0,1.0,1.0,La Neuveville,47.0638996081537,7.09373826632631
0.0,-0.0,0.0,0.0,0.0,0.0,La Praz,46.6677275385183,6.42721151940076
0.0,0.0,0.0,0.0,0.0,0.0,La Punt Chamues-ch,46.574719596399,9.93320471123789
0.0,-0.0,0.0,0.0,0.0,0.0,La Rippe,46.3815314486449,6.15045936119544
1.0,0.0,0.0,0.0,0.0,0.0,La Roche,46.6961154778921,7.13793354419085
0.0,-0.0,0.0,0.0,0.0,0.0,La Sagne,47.0392458554342,6.79915835479414
1.0,0.0,0.0,0.0,0.0,0.0,La Sarraz,46.6576569012837,6.51232752147447
0.0,0.0,0.0,0.0,0.0,0.0,La Sonnaz,46.8337373057917,7.13454047064961
2.0,1.0,1.0,1.0,1.0,1.0,La Tène,47.012333991766,7.00727234445966
0.0,1.0,1.0,1.0,1.0,1.0,La Tour-de-Peilz,46.4530572072124,6.86075270928806
0.0,-0.0,0.0,0.0,0.0,0.0,La Verrerie,46.5891894103361,6.92192766944822
0.0,0.0,0.0,0.0,0.0,0.0,Laax,46.8052871677284,9.25715416942834
1.0,1.0,2.0,3.0,1.0,2.0,Lachen,47.1915558753419,8.85323274872997
0.0,-0.0,0.0,0.0,0.0,0.0,Laconnex,46.1561527071828,6.03668571694776
0.0,0.0,0.0,0.0,0.0,0.0,Lajoux (JU),47.2789988866941,7.13728177764701
1.0,0.0,0.0,0.0,0.0,0.0,Lalden,46.2997583682659,7.90328294376995
0.0,1.0,0.0,2.0,1.0,1.0,Lamone,46.0452197679231,8.93337038903493
0.0,-0.0,0.0,0.0,0.0,0.0,Lampenberg,47.4255602579912,7.75935368969582
3.0,3.0,6.0,5.0,3.0,4.0,Lancy,46.1904313877331,6.11871176754066
0.0,-0.0,0.0,0.0,0.0,0.0,Landiswil,46.9580286713052,7.67905489979282
2.0,1.0,1.0,1.0,1.0,1.0,Landquart,46.9638701343862,9.55825137156191
0.0,0.0,0.0,0.0,0.0,0.0,Langenbruck,47.3490877759362,7.76683539379594
1.0,1.0,1.0,2.0,1.0,1.0,Langendorf,47.2218052833176,7.51520332368154
2.0,3.0,3.0,3.0,2.0,3.0,Langenthal,47.2123106259789,7.78711824924011
1.0,1.0,1.0,1.0,1.0,1.0,Langnau am Albis,47.2885213900219,8.54114466507428
1.0,1.0,2.0,2.0,1.0,2.0,Langnau im Emmental,46.9406659965133,7.785360144023
0.0,0.0,0.0,0.0,0.0,0.0,Langrickenbach,47.593566517388,9.24826222324708
0.0,0.0,0.0,0.0,0.0,0.0,Lantsch/Lenz,46.6830260637779,9.56291310810798
0.0,-0.0,0.0,0.0,0.0,0.0,Lauenen,46.4238889779749,7.32286714053664
0.0,-0.0,1.0,0.0,0.0,0.0,Lauerz,47.0353699087323,8.57936367166742
0.0,0.0,0.0,0.0,0.0,0.0,Läufelfingen,47.3955668782879,7.85719347087674
1.0,1.0,0.0,1.0,1.0,1.0,Laufen,47.4205900026601,7.50090854623144
0.0,0.0,0.0,0.0,0.0,0.0,Laufen-Uhwiesen,47.6698798472619,8.6342985025711
0.0,0.0,0.0,0.0,0.0,0.0,Laufenburg,47.5601467956585,8.06045338084098
0.0,1.0,0.0,0.0,0.0,0.0,Laupen,46.9023331462468,7.23914524739606
0.0,-0.0,0.0,0.0,0.0,0.0,Laupersdorf,47.3142813827652,7.65023579301221
0.0,0.0,0.0,0.0,0.0,0.0,Lauperswil,46.969566037565,7.74480998137335
15.0,20.0,17.0,14.0,8.0,15.0,Lausanne,46.5200386279208,6.63327932352362
0.0,1.0,1.0,1.0,1.0,1.0,Lausen,47.4723288835198,7.75963499098145
0.0,0.0,1.0,0.0,1.0,0.0,Lauterbrunnen,46.6010682461799,7.9150044838329
0.0,-0.0,0.0,0.0,0.0,0.0,Lauwil,47.3897847065118,7.67569890103474
1.0,0.0,0.0,0.0,0.0,0.0,Lavertezzo,46.1789718902958,8.88782126266092
0.0,0.0,0.0,0.0,0.0,0.0,Lavey-Morcles,46.2189692357007,7.02005455231592
0.0,0.0,0.0,0.0,0.0,0.0,Lavigny,46.4966150563479,6.40696247096701
0.0,0.0,0.0,0.0,0.0,0.0,Lavizzara,46.376889775225,8.66042151547646
0.0,0.0,0.0,0.0,0.0,0.0,Lax,46.3886229400187,8.11984730477666
0.0,-0.0,0.0,0.0,0.0,0.0,Le Bémont (JU),47.2642197526843,7.0144815025841
0.0,-0.0,0.0,0.0,0.0,0.0,Le Cerneux-Péquignot,47.0168308721375,6.66526790349953
0.0,-0.0,0.0,0.0,0.0,0.0,Le Châtelard,46.677585674992,6.97727983908002
1.0,1.0,1.0,1.0,1.0,1.0,Le Chenit,46.6036575814684,6.22348001637431
0.0,-0.0,0.0,0.0,0.0,0.0,Le Flon,46.6006206703961,6.86700293687051
7.0,3.0,2.0,2.0,2.0,2.0,Le Grand-Saconnex,46.2336798090084,6.12414405853526
1.0,1.0,0.0,0.0,0.0,0.0,Le Landeron,47.0548137793469,7.06484119515681
0.0,0.0,0.0,0.0,0.0,0.0,Le Lieu,46.6593216837789,6.29931889055162
2.0,2.0,1.0,2.0,1.0,2.0,Le Locle,47.0569450465855,6.74892910847303
0.0,2.0,1.0,2.0,1.0,2.0,Le Mont-sur-Lausanne,46.5596356592646,6.63529732013412
0.0,0.0,0.0,0.0,0.0,0.0,Le Mouret,46.7510875598075,7.1781969426877
0.0,0.0,0.0,0.0,0.0,0.0,Le Noirmont,47.2244150422721,6.95670264385526
0.0,0.0,0.0,0.0,0.0,0.0,Le Pâquier (FR),46.5933155094137,7.05499183901661
0.0,0.0,0.0,0.0,0.0,0.0,Le Vaud,46.4778176060362,6.23411933346762
0.0,1.0,0.0,0.0,0.0,0.0,Leibstadt,47.5891556921206,8.17512678982253
0.0,0.0,0.0,0.0,0.0,0.0,Leimbach (AG),47.2725860428635,8.16944126111579
0.0,0.0,0.0,0.0,0.0,0.0,Leissigen,46.6537474437859,7.77307129573029
0.0,0.0,0.0,0.0,0.0,0.0,Lengnau (AG),47.5206155896699,8.32952643941045
1.0,1.0,1.0,1.0,1.0,1.0,Lengnau (BE),47.1822299755973,7.3660672810739
0.0,0.0,0.0,0.0,0.0,0.0,Lengwil,47.6186807141086,9.19456897062325
0.0,0.0,0.0,0.0,0.0,0.0,Lenk,46.4572327700377,7.44254612745398
0.0,1.0,0.0,1.0,1.0,1.0,Lens,46.2791192860757,7.44642852140568
2.0,2.0,2.0,3.0,2.0,2.0,Lenzburg,47.389490980218,8.17369275410151
0.0,0.0,0.0,0.0,0.0,0.0,Les Bois,47.1765167179203,6.90568733692132
0.0,0.0,0.0,0.0,0.0,0.0,Les Breuleux,47.212012355023,7.00433656905365
0.0,0.0,0.0,0.0,0.0,0.0,Les Clées,46.7319097978355,6.46264068951688
0.0,-0.0,0.0,0.0,0.0,0.0,Les Enfers,47.2877133502452,7.04469841595107
0.0,-0.0,0.0,0.0,0.0,0.0,Les Genevez (JU),47.2564916574186,7.12948243267347
0.0,0.0,0.0,0.0,0.0,0.0,Les Montets,46.8156262702252,6.86864668774065
0.0,-0.0,0.0,0.0,0.0,0.0,Les Planchettes,47.1065479713977,6.7706862367466
0.0,0.0,0.0,0.0,0.0,0.0,Les Ponts-de-Martel,46.9983591452299,6.72996114814845
0.0,0.0,0.0,0.0,0.0,0.0,Les Verrières,46.9039077027878,6.48313969477581
0.0,0.0,0.0,0.0,0.0,0.0,Leuggern,47.5798847010146,8.21753400223483
2.0,1.0,1.0,0.0,1.0,1.0,Leuk,46.317632352368,7.63468615374641
1.0,0.0,0.0,0.0,0.0,0.0,Leukerbad,46.3797109502911,7.62971035233422
0.0,0.0,0.0,0.0,0.0,0.0,Leutwil,47.3085372113871,8.17390076497352
0.0,0.0,0.0,0.0,0.0,0.0,Leuzigen,47.1741568774041,7.45709581687129
1.0,1.0,0.0,0.0,1.0,0.0,Leysin,46.3430729465151,7.01000329687692
1.0,1.0,1.0,0.0,0.0,0.0,Leytron,46.1871269357357,7.20810298405938
0.0,0.0,0.0,0.0,0.0,0.0,Lichtensteig,47.3242930824937,9.0869652723253
0.0,-0.0,0.0,0.0,0.0,0.0,Liddes,45.9918753039363,7.18570010673463
0.0,-0.0,0.0,0.0,0.0,0.0,Liedertswil,47.3914890806551,7.71808996841142
0.0,0.0,0.0,0.0,0.0,0.0,Liesberg,47.4035169637652,7.42935094888037
2.0,3.0,3.0,3.0,2.0,3.0,Liestal,47.484987349491,7.7345016817415
0.0,0.0,0.0,0.0,0.0,0.0,Ligerz,47.0847105672377,7.13706159999214
0.0,0.0,0.0,0.0,0.0,0.0,Lignerolle,46.7408483435071,6.45593573863747
0.0,0.0,0.0,0.0,0.0,0.0,Lignières,47.0826979354322,7.06464612996447
0.0,1.0,0.0,1.0,1.0,1.0,Lindau,47.4419209706,8.67160611707775
0.0,-0.0,0.0,0.0,0.0,0.0,Linden,46.8473877199274,7.67856236524653
0.0,0.0,0.0,0.0,0.0,0.0,Linescio,46.3084180997674,8.58358587775678
3.0,2.0,3.0,3.0,2.0,2.0,Locarno,46.1675378043332,8.79428252066253
0.0,-0.0,0.0,0.0,0.0,0.0,Lohn (SH),47.7558422079961,8.67091908507221
0.0,0.0,0.0,0.0,0.0,0.0,Lohn-Ammannsegg,47.1696295863419,7.52436240838072
0.0,0.0,0.0,0.0,0.0,0.0,Löhningen,47.7012614247967,8.55373224118357
0.0,0.0,0.0,0.0,0.0,0.0,Lommis,47.5228480523732,8.97493050878802
0.0,0.0,0.0,0.0,0.0,0.0,Lommiswil,47.2236246093597,7.4716355137535
0.0,1.0,0.0,0.0,0.0,0.0,Lonay,46.5272832199413,6.5210786683286
0.0,-0.0,0.0,0.0,0.0,0.0,Longirod,46.4942679713851,6.25850402776239
1.0,1.0,1.0,1.0,1.0,1.0,Losone,46.1652234614179,8.76185364456629
0.0,0.0,0.0,0.0,0.0,0.0,Lostallo,46.3131751657956,9.1952396518881
1.0,0.0,0.0,0.0,0.0,0.0,Lostorf,47.3835137094951,7.947151470878
0.0,1.0,0.0,0.0,0.0,0.0,Lotzwil,47.1907115582561,7.79093634580788
0.0,-0.0,0.0,0.0,0.0,0.0,Lovatens,46.691466432935,6.86473140711975
0.0,-0.0,0.0,0.0,0.0,0.0,Loveresse,47.242338771335,7.23654815164667
0.0,1.0,0.0,0.0,0.0,0.0,Lucens,46.7084223941448,6.83839587835798
0.0,0.0,0.0,0.0,0.0,0.0,Lufingen,47.4894787525455,8.59573852553131
3.0,11.0,11.0,12.0,6.0,10.0,Lugano,46.0045061869122,8.95033231844891
0.0,-0.0,0.0,0.0,0.0,0.0,Lugnez,47.4839584450058,7.0976388702037
0.0,-0.0,0.0,0.0,0.0,0.0,Luins,46.4413209692475,6.27137046432559
0.0,0.0,0.0,0.0,0.0,0.0,Lully (FR),46.8335029252196,6.84617377923052
0.0,-0.0,0.0,0.0,0.0,0.0,Lully (VD),46.5052284753129,6.46542867613915
0.0,0.0,0.0,0.0,0.0,0.0,Lumino,46.2305368015624,9.06551368445086
0.0,0.0,0.0,0.0,0.0,0.0,Lumnezia,46.7174982109156,9.17439103100693
0.0,0.0,0.0,0.0,0.0,0.0,Lungern,46.7851103024327,8.15759599801329
1.0,1.0,1.0,0.0,1.0,1.0,Lupfig,47.441465588831,8.20357730853662
0.0,0.0,0.0,0.0,0.0,0.0,Lupsingen,47.4464080250757,7.69451216879707
0.0,-0.0,0.0,0.0,0.0,0.0,Lüscherz,47.0460697082491,7.15175517379162
0.0,-0.0,0.0,0.0,0.0,0.0,Lussery-Villars,46.6307777845828,6.52584812217071
0.0,0.0,0.0,0.0,0.0,0.0,Lüsslingen-Nennigkofen,47.1903318147058,7.50196385757906
0.0,-0.0,0.0,0.0,0.0,0.0,Lussy-sur-Morges,46.504193795802,6.44981284825667
0.0,1.0,0.0,1.0,1.0,1.0,Luterbach,47.2154400954976,7.58648045244965
0.0,0.0,0.0,0.0,0.0,0.0,Lüterkofen-Ichertswil,47.1624419070399,7.51248176554417
0.0,-0.0,0.0,0.0,0.0,0.0,Lüterswil-Gächliwil,47.1201893718918,7.43862949794204
0.0,-0.0,0.0,0.0,0.0,0.0,Luthern,47.0598319264842,7.91644258638029
1.0,0.0,0.0,0.0,0.0,0.0,Lütisburg,47.3945839052628,9.0785417558564
1.0,1.0,1.0,1.0,1.0,1.0,Lutry,46.5033144770672,6.68694368179956
0.0,0.0,0.0,0.0,0.0,0.0,Lütschental,46.6377846503575,7.95320218735085
0.0,1.0,1.0,0.0,0.0,0.0,Lützelflüh,47.0065909396778,7.68453161827019
0.0,0.0,0.0,0.0,0.0,0.0,Lutzenberg,47.4594629375257,9.56871341249873
0.0,0.0,0.0,0.0,0.0,0.0,Luzein,46.9202544634748,9.76535942182691
10.0,12.0,9.0,12.0,6.0,10.0,Luzern,47.0539233328276,8.30992871808169
1.0,2.0,2.0,2.0,2.0,2.0,Lyss,47.0742386693974,7.30696700087036
0.0,0.0,0.0,0.0,0.0,0.0,Lyssach,47.0670356464428,7.57817477493514
0.0,0.0,0.0,0.0,0.0,0.0,Madiswil,47.1655020901629,7.79868406005204
0.0,0.0,0.0,0.0,0.0,0.0,Madulain,46.585451606621,9.93631067058477
0.0,0.0,0.0,0.0,1.0,0.0,Magden,47.5270319963575,7.81307953271812
0.0,1.0,0.0,1.0,1.0,1.0,Mägenwil,47.4116082062156,8.22964954574902
1.0,0.0,0.0,0.0,0.0,0.0,Maggia,46.2468119679092,8.70807561208889
0.0,2.0,0.0,0.0,0.0,0.0,Magliaso,45.9837191277822,8.88909963548733
0.0,0.0,0.0,0.0,0.0,0.0,Maienfeld,47.0075623401526,9.53103731885174
0.0,0.0,0.0,0.0,0.0,0.0,Maisprach,47.5242220226518,7.84625488385415
0.0,0.0,0.0,0.0,0.0,0.0,Malans,46.9824112158491,9.57739168830695
1.0,1.0,1.0,1.0,1.0,1.0,Malters,47.0368145773646,8.18465152822296
0.0,0.0,0.0,0.0,0.0,0.0,Mammern,47.6459504007753,8.91593731276202
0.0,-0.0,0.0,0.0,0.0,0.0,Mandach,47.5468193622697,8.1851674428787
1.0,1.0,1.0,2.0,1.0,1.0,Männedorf,47.2536492426032,8.69632736576504
1.0,1.0,1.0,1.0,1.0,1.0,Manno,46.0346147278149,8.91887041925657
0.0,-0.0,0.0,0.0,0.0,0.0,Maracon,46.5502664406765,6.87144771562914
0.0,0.0,0.0,0.0,0.0,0.0,Marbach (SG),47.391983238993,9.56866430926765
0.0,-0.0,0.0,0.0,0.0,0.0,Marchissy,46.4878491963248,6.24692129551387
1.0,1.0,1.0,1.0,1.0,1.0,Marly,46.7762342868963,7.16105326852816
0.0,0.0,0.0,0.0,0.0,0.0,Marsens,46.6554102226754,7.06238806864933
0.0,0.0,0.0,0.0,0.0,0.0,Märstetten,47.5926315420721,9.06870494881864
0.0,0.0,0.0,0.0,0.0,0.0,Marthalen,47.6256657340662,8.64793709293375
5.0,3.0,3.0,3.0,3.0,3.0,Martigny,46.0986022265575,7.07011811731001
0.0,0.0,0.0,0.0,0.0,0.0,Martigny-Combe,46.0957931538712,7.03781154178186
0.0,0.0,0.0,0.0,0.0,0.0,Maschwanden,47.2346896680063,8.42645349859941
0.0,0.0,0.0,0.0,0.0,0.0,Masein,46.7016875385522,9.4263088039193
1.0,-0.0,1.0,2.0,1.0,1.0,Massagno,46.0136210031819,8.94154529620618
0.0,0.0,0.0,0.0,0.0,0.0,Massongex,46.2422427436006,6.99005520587271
0.0,-0.0,0.0,0.0,0.0,0.0,Massonnens,46.7000633354162,6.97447212396233
0.0,-0.0,0.0,0.0,0.0,0.0,Mathod,46.7669289183701,6.56543345085987
0.0,1.0,0.0,1.0,0.0,0.0,Matran,46.7841554417311,7.09684431109375
1.0,1.0,1.0,1.0,1.0,1.0,Matten bei Interlaken,46.6777206148853,7.86732151713197
0.0,0.0,0.0,0.0,0.0,0.0,Mattstetten,47.0302159216033,7.51361751876869
0.0,0.0,0.0,0.0,0.0,0.0,Matzendorf,47.3071225848619,7.62904933306983
1.0,0.0,0.0,0.0,0.0,0.0,Matzingen,47.5197897989809,8.93367647115912
0.0,-0.0,0.0,0.0,0.0,0.0,Mauborget,46.8554679353844,6.61644864758952
0.0,0.0,0.0,0.0,0.0,0.0,Mauensee,47.1679518218964,8.06645074891483
1.0,1.0,1.0,1.0,1.0,1.0,Maur,47.34029893964,8.66925663975339
0.0,-0.0,0.0,0.0,0.0,0.0,Mauraz,46.6047291176157,6.42447591379461
0.0,0.0,0.0,0.0,0.0,0.0,Medel (Lucmagn),46.673274930546,8.8592613731411
1.0,1.0,0.0,1.0,1.0,1.0,Meggen,47.0462311828403,8.37297330594697
0.0,-0.0,0.0,0.0,0.0,0.0,Meienried,47.139034008405,7.33844385779216
0.0,-0.0,0.0,0.0,0.0,0.0,Meierskappel,47.1248029118297,8.44287863779375
0.0,0.0,0.0,0.0,0.0,0.0,Meikirch,47.0095260830388,7.36367398548596
2.0,2.0,0.0,2.0,1.0,1.0,Meilen,47.2694888886064,8.64515754025117
0.0,0.0,0.0,0.0,0.0,0.0,Meinier,46.246601873107,6.23405679749971
0.0,0.0,0.0,0.0,0.0,0.0,Meinisberg,47.1597308492988,7.34895462045758
1.0,1.0,1.0,1.0,1.0,1.0,Meiringen,46.7273487121371,8.18691570568925
0.0,0.0,0.0,0.0,0.0,0.0,Meisterschwanden,47.2946880591472,8.22791765556373
0.0,0.0,0.0,0.0,0.0,0.0,Melchnau,47.1824149889395,7.85157019271865
0.0,1.0,0.0,0.0,0.0,0.0,Melide,45.9541756630472,8.94636177074046
0.0,0.0,0.0,0.0,0.0,0.0,Mellikon,47.5672041777282,8.35290000088082
1.0,1.0,1.0,1.0,1.0,1.0,Mellingen,47.4184957350085,8.27348407159037
0.0,1.0,1.0,1.0,1.0,1.0,Mels,47.0464376348157,9.41934485913813
0.0,-0.0,0.0,0.0,0.0,0.0,Meltingen,47.3881298211358,7.58960568129732
5.0,3.0,3.0,3.0,3.0,3.0,Mendrisio,45.869991976749,8.98397105619038
0.0,-0.0,0.0,0.0,0.0,0.0,Ménières,46.7833020770161,6.88077534596746
1.0,1.0,1.0,1.0,1.0,1.0,Menziken,47.2427866445003,8.18752576371483
0.0,0.0,0.0,0.0,1.0,0.0,Menzingen,47.179194022046,8.59034649658465
0.0,0.0,0.0,0.0,0.0,0.0,Menznau,47.0844429589376,8.0391347506537
0.0,0.0,0.0,1.0,0.0,0.0,Merenschwand,47.2603134401816,8.37407443361551
0.0,0.0,0.0,0.0,0.0,0.0,Mergoscia,46.2091767863167,8.84715550452849
0.0,0.0,0.0,0.0,0.0,0.0,Merishausen,47.7609851175963,8.60834607612217
0.0,-0.0,0.0,0.0,0.0,0.0,Mervelier,47.3432389032075,7.50214284980155
0.0,-0.0,0.0,0.0,0.0,0.0,Merzligen,47.0867543354398,7.25162441092491
1.0,0.0,0.0,0.0,0.0,0.0,Mesocco,46.392666354484,9.23292421057826
0.0,-0.0,0.0,0.0,0.0,0.0,Messen,47.0923048896305,7.44784952058063
0.0,0.0,0.0,0.0,0.0,0.0,Mettauertal,47.5605184263068,8.15214106634135
0.0,0.0,0.0,0.0,0.0,0.0,Mettembert,47.3980611158819,7.32205605136689
0.0,1.0,1.0,1.0,1.0,1.0,Mettmenstetten,47.2433605881519,8.4635992967836
0.0,-0.0,0.0,0.0,0.0,0.0,Metzerlen-Mariastein,47.466473222068,7.4651501556953
0.0,0.0,0.0,0.0,0.0,0.0,Mex (VD),46.5779038939,6.55152977783159
0.0,2.0,0.0,0.0,0.0,0.0,Meyriez,46.9236162445601,7.10777102090625
5.0,4.0,4.0,4.0,3.0,4.0,Meyrin,46.2285670891577,6.07241325622533
0.0,-0.0,0.0,0.0,0.0,0.0,Mézières (FR),46.6782669114077,6.92630113594544
0.0,0.0,0.0,1.0,1.0,0.0,Mezzovico-Vira,46.090410975021,8.91779756910097
1.0,-0.0,0.0,0.0,0.0,0.0,Mies,46.3034707076223,6.16918714751882
0.0,0.0,0.0,0.0,0.0,0.0,Miglieglia,46.0246033454401,8.85789633248895
2.0,2.0,1.0,1.0,1.0,1.0,Milvignes,46.9658100587872,6.86047908938111
2.0,1.0,0.0,2.0,2.0,1.0,Minusio,46.1780802651005,8.81526745864438
0.0,-0.0,0.0,0.0,0.0,0.0,Mirchel,46.895124004727,7.64728060028353
0.0,0.0,0.0,0.0,0.0,0.0,Misery-Courtion,46.8524249560443,7.06625131660858
0.0,-0.0,0.0,0.0,0.0,0.0,Missy,46.8781580581273,6.97030761012179
1.0,1.0,2.0,2.0,1.0,2.0,Möhlin,47.5575031627391,7.84518126199891
0.0,-0.0,0.0,0.0,0.0,0.0,Moiry,46.649067694499,6.45368878953105
0.0,-0.0,0.0,0.0,0.0,0.0,Mollens (VD),46.5771191709336,6.35715294132938
0.0,-0.0,0.0,0.0,0.0,0.0,Molondin,46.76009028115,6.74880737746299
0.0,0.0,0.0,1.0,1.0,0.0,Mönchaltorf,47.3100450527909,8.72146386151289
0.0,-0.0,0.0,0.0,0.0,0.0,Mont-la-Ville,46.6459760700963,6.40933115405286
0.0,0.0,0.0,0.0,0.0,0.0,Mont-Noble,46.2287435596369,7.42827577246633
0.0,1.0,0.0,0.0,0.0,0.0,Mont-sur-Rolle,46.4707682707887,6.33714256967085
0.0,-0.0,0.0,0.0,0.0,0.0,Mont-Tramelan,47.2067586109704,7.0439768626957
1.0,0.0,0.0,0.0,0.0,0.0,Mont-Vully,46.95870474429,7.1101817468572
0.0,0.0,0.0,0.0,0.0,0.0,Montagny (FR),46.8170904730038,6.99573698950855
2.0,0.0,0.0,0.0,0.0,0.0,Montagny-près-Yverdon,46.791566467773,6.61218621185986
1.0,0.0,0.0,0.0,0.0,0.0,Montanaire,46.7034605671685,6.75607083382147
0.0,0.0,0.0,0.0,0.0,0.0,Montcherand,46.7332137048427,6.51102784155358
0.0,1.0,1.0,1.0,1.0,1.0,Monteceneri,46.1182582749935,8.92114028015886
0.0,-0.0,0.0,0.0,0.0,0.0,Montet (Glâne),46.6444226358887,6.81429083578136
0.0,-0.0,0.0,0.0,0.0,0.0,Montfaucon,47.2823436365646,7.05266887098392
0.0,-0.0,0.0,0.0,0.0,0.0,Mönthal,47.5183143268325,8.14095328807733
3.0,2.0,3.0,3.0,2.0,2.0,Monthey,46.2528702205799,6.94976745303803
0.0,-0.0,0.0,0.0,0.0,0.0,Montilliez,46.6372019652554,6.66418107638665
0.0,0.0,0.0,0.0,0.0,0.0,Montpreveyres,46.5819225771174,6.74064657906116
4.0,3.0,3.0,3.0,2.0,3.0,Montreux,46.4353140302191,6.91168685030716
0.0,-0.0,0.0,0.0,0.0,0.0,Montricher,46.599802802631,6.37758169772637
0.0,0.0,0.0,0.0,0.0,0.0,Moosleerau,47.2687102411364,8.06366989534861
2.0,1.0,2.0,2.0,1.0,2.0,Moosseedorf,47.0158398834215,7.48203290178131
1.0,1.0,1.0,1.0,1.0,1.0,Morbio Inferiore,45.8533379927327,9.01697777477042
0.0,0.0,0.0,0.0,0.0,0.0,Morcote,45.9276893546379,8.90824315756356
0.0,0.0,0.0,0.0,0.0,0.0,Mörel-Filet,46.3566602657877,8.04538820729343
2.0,2.0,3.0,4.0,2.0,3.0,Morges,46.5154300135414,6.50173286352235
0.0,0.0,0.0,0.0,0.0,0.0,Mörigen,47.0848864715786,7.21344090808406
0.0,1.0,0.0,1.0,1.0,1.0,Möriken-Wildegg,47.4155221285977,8.18200265700526
0.0,-0.0,0.0,0.0,0.0,0.0,Morlon,46.6258007518847,7.08609771674466
0.0,0.0,0.0,0.0,0.0,0.0,Morrens (VD),46.5910628379363,6.62700006499464
0.0,-0.0,0.0,0.0,0.0,0.0,Morschach,46.9809929937111,8.61895771729612
0.0,0.0,0.0,0.0,0.0,0.0,Mörschwil,47.4692500268517,9.4231499703081
0.0,0.0,0.0,0.0,0.0,0.0,Mosnang,47.3627318784456,9.04048848605421
1.0,1.0,1.0,1.0,1.0,1.0,Moudon,46.668622526206,6.79832908669453
2.0,1.0,1.0,1.0,1.0,1.0,Moutier,47.2793751420645,7.37122021432124
0.0,-0.0,0.0,0.0,0.0,0.0,Movelier,47.4097480263691,7.31673051332834
0.0,0.0,0.0,1.0,1.0,0.0,Muhen,47.3398209424008,8.05391673843954
0.0,0.0,0.0,0.0,0.0,0.0,Mühlau,47.2296043476007,8.38938375954689
0.0,0.0,0.0,0.0,0.0,0.0,Mühleberg,46.9545441777743,7.26259693027928
1.0,0.0,1.0,0.0,0.0,0.0,Müllheim,47.6025385736477,9.0025082520756
0.0,1.0,0.0,0.0,0.0,0.0,Mülligen,47.4574118460689,8.23961342422657
0.0,0.0,0.0,0.0,0.0,0.0,Mümliswil-Ramiswil,47.3411586121889,7.701948113484
0.0,1.0,0.0,0.0,0.0,0.0,Mumpf,47.5455215579244,7.92080519763006
1.0,2.0,2.0,2.0,1.0,2.0,Münchenbuchsee,47.0212442660156,7.45046923762342
3.0,3.0,3.0,4.0,2.0,3.0,Münchenstein,47.5131091748494,7.61650886569974
0.0,0.0,0.0,0.0,0.0,0.0,Münchenwiler,46.9128738990215,7.126215019807
0.0,1.0,0.0,1.0,0.0,0.0,Münchwilen (AG),47.5381482637727,7.96191143282887
1.0,1.0,1.0,1.0,1.0,1.0,Münchwilen (TG),47.4784672843576,8.99753262081542
1.0,2.0,2.0,4.0,2.0,2.0,Münsingen,46.8745579688612,7.561937684427
0.0,1.0,1.0,2.0,1.0,1.0,Münsterlingen,47.6298816722134,9.22687842805644
0.0,1.0,0.0,0.0,0.0,0.0,Muntelier,46.9353545112699,7.12345735509231
0.0,-0.0,0.0,0.0,0.0,0.0,Muntogna da Schons,46.6370996510278,9.41478775195793
0.0,0.0,0.0,0.0,0.0,0.0,Müntschemier,46.9956844263047,7.14676667509116
0.0,-0.0,0.0,0.0,0.0,0.0,Muolen,47.5212863981555,9.32415694986095
0.0,0.0,1.0,0.0,0.0,0.0,Muotathal,46.9749771979514,8.75814808409539
0.0,1.0,1.0,2.0,1.0,1.0,Muralto,46.1736932731588,8.80609119073237
1.0,0.0,0.0,0.0,0.0,0.0,Murgenthal,47.2679139880863,7.83769450321095
1.0,1.0,2.0,1.0,1.0,1.0,Muri (AG),47.2713591080916,8.34254981079703
5.0,2.0,2.0,3.0,2.0,2.0,Muri bei Bern,46.9303840474383,7.48721778749188
0.0,-0.0,0.0,0.0,0.0,0.0,Muriaux,47.2460937232141,6.97896176245622
1.0,1.0,2.0,1.0,1.0,1.0,Murten,46.9272442745812,7.11825293313731
0.0,-0.0,0.0,0.0,0.0,0.0,Mutrux,46.882301487256,6.72755721785287
4.0,3.0,4.0,4.0,2.0,3.0,Muttenz,47.5292613153822,7.63913728510668
0.0,1.0,0.0,0.0,0.0,0.0,Muzzano,45.9976718730848,8.92303380372456
1.0,1.0,1.0,1.0,1.0,1.0,Naters,46.3263672841355,7.98791460221989
1.0,1.0,0.0,0.0,0.0,0.0,Nebikon,47.1917916350611,7.97699996974764
0.0,0.0,0.0,1.0,1.0,0.0,Neckertal,47.3622695996835,9.13580563173488
0.0,0.0,0.0,0.0,0.0,0.0,Neerach,47.5131172333303,8.47411027135432
0.0,1.0,1.0,1.0,1.0,1.0,Neftenbach,47.5283226121591,8.66697056908735
0.0,0.0,0.0,0.0,0.0,0.0,Neggio,45.9874492995194,8.87887322855504
1.0,1.0,0.0,1.0,1.0,1.0,Nendaz,46.1881840202565,7.30523940634485
0.0,-0.0,0.0,0.0,0.0,0.0,Nenzlingen,47.4484232337876,7.56193188817421
0.0,0.0,1.0,0.0,0.0,0.0,Nesslau,47.2236568450616,9.20007611257486
3.0,7.0,6.0,5.0,4.0,6.0,Neuchâtel,46.9922263255387,6.92987043438639
0.0,0.0,0.0,1.0,0.0,0.0,Neuendorf,47.3031305393468,7.7956438470504
2.0,1.0,1.0,1.0,1.0,1.0,Neuenegg,46.8952315712135,7.30347198661081
1.0,1.0,1.0,1.0,1.0,1.0,Neuenhof,47.4459604630605,8.32960309427206
2.0,1.0,1.0,1.0,1.0,1.0,Neuenkirch,47.0987557801056,8.20395570005209
1.0,2.0,1.0,3.0,2.0,2.0,Neuhausen am Rheinfall,47.6817466826139,8.61725174028051
1.0,0.0,0.0,0.0,0.0,0.0,Neuheim,47.2054332422029,8.57507156346279
0.0,-0.0,0.0,0.0,0.0,0.0,Neunforn,47.6063568284613,8.76852860918535
1.0,0.0,0.0,0.0,0.0,0.0,Neunkirch,47.6900824156965,8.49888185507639
1.0,0.0,0.0,0.0,0.0,0.0,Neyruz (FR),46.7678652166423,7.06552817195287
2.0,2.0,1.0,2.0,1.0,2.0,Nidau,47.1245127455389,7.23963092024307
1.0,1.0,1.0,1.0,1.0,1.0,Niederbipp,47.2665170104116,7.69629561678495
0.0,0.0,0.0,0.0,0.0,0.0,Niederbuchsiten,47.2969055457727,7.77180374531813
0.0,0.0,0.0,0.0,0.0,0.0,Niederbüren,47.4656035663064,9.20410831596694
0.0,0.0,0.0,0.0,0.0,0.0,Niederdorf,47.4066944320386,7.7512911400804
0.0,0.0,0.0,0.0,0.0,0.0,Niedergesteln,46.3136860264749,7.78136941793503
0.0,1.0,1.0,1.0,1.0,1.0,Niederglatt,47.4912569267271,8.50420755434069
1.0,1.0,0.0,0.0,0.0,0.0,Niedergösgen,47.3725204415832,7.99073987911695
1.0,1.0,1.0,1.0,1.0,1.0,Niederhasli,47.4815339667445,8.4854370140204
0.0,0.0,0.0,0.0,0.0,0.0,Niederhelfenschwil,47.4757763589225,9.18586935744908
0.0,-0.0,0.0,0.0,0.0,0.0,Niederhünigen,46.8771498430108,7.63802849497535
1.0,1.0,0.0,1.0,1.0,1.0,Niederlenz,47.4011660459471,8.17650331676555
0.0,-0.0,0.0,0.0,0.0,0.0,Niedermuhlern,46.8611274671889,7.46617384399732
0.0,0.0,0.0,0.0,0.0,0.0,Niederönz,47.1873734190559,7.69195721131753
0.0,0.0,0.0,0.0,0.0,0.0,Niederried bei Interlaken,46.7179466598815,7.93042246477861
1.0,0.0,1.0,0.0,0.0,0.0,Niederrohrdorf,47.423657936742,8.30537353103741
0.0,0.0,0.0,0.0,0.0,0.0,Niederweningen,47.5049497586388,8.37705025044005
0.0,0.0,0.0,0.0,0.0,0.0,Niederwil (AG),47.3778692840506,8.29403534152153
0.0,1.0,0.0,0.0,0.0,0.0,Noble-Contrée,46.3069700979508,7.52950651576421
0.0,-0.0,1.0,0.0,0.0,0.0,Nods,47.1133308593923,7.0802428554149
0.0,0.0,1.0,1.0,0.0,0.0,Nottwil,47.1351614150911,8.13724819073429
0.0,0.0,0.0,0.0,0.0,0.0,Novaggio,46.0102454313227,8.85494107694458
0.0,-0.0,0.0,0.0,0.0,0.0,Novalles,46.8283303698297,6.59589266086266
4.0,1.0,1.0,1.0,0.0,1.0,Novazzano,45.8412303256519,8.98187298438906
2.0,0.0,0.0,0.0,0.0,0.0,Noville,46.3821859751085,6.90050493843973
0.0,0.0,0.0,0.0,0.0,0.0,Nuglar-St. Pantaleon,47.4715940772273,7.6933064770727
0.0,0.0,0.0,0.0,0.0,0.0,Nunningen,47.3934848047754,7.61876043841963
0.0,1.0,1.0,1.0,0.0,1.0,Nürensdorf,47.4466555165456,8.64917360775939
0.0,-0.0,0.0,0.0,0.0,0.0,Nusshof,47.4910823967371,7.80486503967133
0.0,-0.0,0.0,0.0,0.0,0.0,Nuvilly,46.7830476276501,6.83101511060711
2.0,3.0,4.0,4.0,2.0,3.0,Nyon,46.3825026933211,6.23883705062939
0.0,0.0,0.0,1.0,1.0,0.0,Oberägeri,47.1348709441921,8.61444021183045
0.0,-0.0,0.0,0.0,0.0,0.0,Oberbalm,46.8737185877974,7.40452913426316
0.0,0.0,0.0,0.0,0.0,0.0,Oberbipp,47.2602948484446,7.66059253810473
0.0,0.0,0.0,0.0,0.0,0.0,Oberbuchsiten,47.3095127904703,7.7665924807825
0.0,1.0,1.0,1.0,1.0,1.0,Oberbüren,47.4509573200661,9.16118121219211
1.0,1.0,0.0,0.0,0.0,0.0,Oberburg,47.0372830738182,7.62677976744842
0.0,0.0,0.0,1.0,0.0,0.0,Oberdiessbach,46.8402995701817,7.61953980108571
0.0,0.0,0.0,0.0,0.0,0.0,Oberdorf (BL),47.3932068244651,7.74988764365384
0.0,0.0,1.0,0.0,0.0,0.0,Oberdorf (NW),46.957967047788,8.38589115282381
0.0,0.0,0.0,0.0,0.0,0.0,Oberdorf (SO),47.2299076613713,7.5033305703209
0.0,0.0,0.0,0.0,0.0,0.0,Oberegg,47.4228927325679,9.5513410085851
0.0,-0.0,0.0,0.0,0.0,0.0,Oberembrach,47.4874525131158,8.61825370105865
0.0,0.0,0.0,0.0,0.0,0.0,Oberems,46.2815285052353,7.69553619131473
1.0,1.0,1.0,1.0,1.0,1.0,Oberengstringen,47.4088783413756,8.46280881967948
0.0,1.0,1.0,1.0,1.0,1.0,Oberentfelden,47.3560522631195,8.04616208185057
0.0,1.0,0.0,0.0,0.0,0.0,Obergerlafingen,47.162373024015,7.5850158743162
2.0,1.0,1.0,1.0,1.0,1.0,Oberglatt,47.47672034842,8.51983708172111
0.0,-0.0,0.0,0.0,0.0,0.0,Obergoms,46.535435983221,8.35112496970369
0.0,1.0,0.0,0.0,0.0,0.0,Obergösgen,47.364602742441,7.95226661450719
0.0,0.0,0.0,0.0,0.0,0.0,Oberhallau,47.7055620213365,8.47787244011931
0.0,0.0,0.0,0.0,0.0,0.0,Oberhelfenschwil,47.3545051567624,9.11305276489569
0.0,1.0,0.0,0.0,0.0,0.0,Oberhof,47.4488983427936,8.00611678798138
0.0,0.0,0.0,0.0,0.0,0.0,Oberhofen am Thunersee,46.7304669032343,7.6688863017063
0.0,-0.0,0.0,0.0,0.0,0.0,Oberhünigen,46.8789029498063,7.66296020153802
0.0,-0.0,0.0,0.0,0.0,0.0,Oberiberg,47.0394730562091,8.78210635125565
1.0,1.0,1.0,1.0,1.0,1.0,Oberkirch,47.1559825963399,8.11510198903027
0.0,0.0,0.0,0.0,0.0,0.0,Oberkulm,47.2989762991322,8.11955752300964
0.0,-0.0,0.0,0.0,0.0,0.0,Oberlangenegg,46.8085451182512,7.74651729954348
0.0,0.0,1.0,0.0,0.0,0.0,Oberlunkhofen,47.3114376142004,8.39216402845229
0.0,0.0,0.0,0.0,0.0,0.0,Obermumpf,47.5292600495671,7.93792105293525
0.0,-0.0,0.0,0.0,0.0,0.0,Oberried am Brienzersee,46.7375907452191,7.96331226783709
1.0,1.0,0.0,1.0,1.0,1.0,Oberrieden,47.2764569322886,8.57922651845716
1.0,1.0,1.0,1.0,1.0,1.0,Oberriet (SG),47.3200797814433,9.56446918486416
0.0,0.0,1.0,0.0,0.0,0.0,Oberrohrdorf,47.4190711648034,8.31722611943553
0.0,-0.0,0.0,0.0,0.0,0.0,Oberrüti,47.1656920687336,8.39484334831367
0.0,-0.0,0.0,0.0,0.0,0.0,Obersaxen Mundaun,46.7455885725935,9.10068736254526
1.0,1.0,1.0,1.0,1.0,1.0,Obersiggenthal,47.4875906765816,8.29579950604288
0.0,-0.0,0.0,0.0,0.0,0.0,Oberthal,46.9157623319483,7.67361548897376
0.0,1.0,1.0,1.0,1.0,1.0,Oberuzwil,47.4308227314112,9.1234081057064
0.0,0.0,0.0,0.0,0.0,0.0,Oberweningen,47.5020115316959,8.40619966450878
1.0,1.0,1.0,1.0,2.0,1.0,Oberwil (BL),47.5140844749092,7.55677295751798
0.0,-0.0,0.0,0.0,0.0,0.0,Oberwil bei Büren,47.1282797268796,7.40568028762609
0.0,-0.0,0.0,0.0,0.0,0.0,Oberwil im Simmental,46.6569343837962,7.43341189854957
0.0,0.0,0.0,0.0,0.0,0.0,Oberwil-Lieli,47.3357751786794,8.38598309323404
0.0,1.0,0.0,1.0,1.0,1.0,Obfelden,47.2643353831691,8.43096598199181
0.0,-0.0,0.0,0.0,0.0,0.0,Ochlenberg,47.1494919112326,7.73528875276331
0.0,0.0,0.0,0.0,0.0,0.0,Oekingen,47.1794362983,7.60485068284592
1.0,1.0,2.0,2.0,1.0,2.0,Oensingen,47.2907529739391,7.71756399367364
0.0,-0.0,0.0,0.0,0.0,0.0,Oeschenbach,47.1017884316386,7.74688115907457
0.0,0.0,0.0,0.0,0.0,0.0,Oeschgen,47.5190033100206,8.01615842899994
0.0,1.0,0.0,1.0,1.0,1.0,Oetwil am See,47.2704746668845,8.72051328279718
0.0,0.0,0.0,0.0,0.0,0.0,Oetwil an der Limmat,47.4283434816976,8.3955826918512
4.0,2.0,2.0,2.0,1.0,2.0,Oftringen,47.3161654277934,7.92138029915297
0.0,-0.0,0.0,0.0,0.0,0.0,Ogens,46.7113553858301,6.7232751286514
1.0,1.0,1.0,1.0,1.0,1.0,Ollon,46.297268133095,7.02983276795757
0.0,-0.0,0.0,0.0,0.0,0.0,Olsberg,47.5217263432016,7.783831961389
5.0,4.0,5.0,5.0,3.0,4.0,Olten,47.3522393120489,7.89788303873726
0.0,-0.0,0.0,0.0,0.0,0.0,Oltingen,47.4321387435176,7.93436025454152
1.0,1.0,2.0,2.0,2.0,2.0,Onex,46.1829915869599,6.09816788058552
0.0,0.0,0.0,0.0,0.0,0.0,Onnens (VD),46.8397649892086,6.68748066595162
0.0,-0.0,0.0,0.0,0.0,0.0,Onsernone,46.2018678516315,8.62151254836146
5.0,3.0,5.0,4.0,3.0,4.0,Opfikon,47.4320942932089,8.57725815425439
0.0,-0.0,0.0,0.0,0.0,0.0,Oppens,46.7138523287371,6.6918525837038
0.0,0.0,0.0,0.0,0.0,0.0,Oppligen,46.8214404915606,7.59850951943498
2.0,1.0,1.0,1.0,1.0,1.0,Orbe,46.7243977683594,6.53341870282243
0.0,-0.0,0.0,0.0,0.0,0.0,Orges,46.8075839176361,6.58835669575996
0.0,0.0,0.0,0.0,0.0,0.0,Origlio,46.0540760515306,8.9439509313436
0.0,0.0,1.0,0.0,0.0,0.0,Ormalingen,47.4692487368041,7.87634233380897
0.0,0.0,0.0,0.0,0.0,0.0,Ormont-Dessous,46.3621135612863,7.05143257662682
0.0,0.0,0.0,0.0,0.0,0.0,Ormont-Dessus,46.3534200577547,7.15282940033316
0.0,-0.0,0.0,0.0,0.0,0.0,Orny,46.6676674074477,6.52653037995947
1.0,1.0,1.0,1.0,1.0,1.0,Oron,46.571624854084,6.82687263560977
0.0,1.0,0.0,0.0,0.0,0.0,Orpund,47.1390018048464,7.3068064548273
0.0,1.0,0.0,1.0,0.0,0.0,Orselina,46.1800518782792,8.80106995126556
0.0,0.0,0.0,0.0,0.0,0.0,Orsières,46.0304613129694,7.14677641686295
0.0,0.0,0.0,0.0,0.0,0.0,Orvin,47.160445609923,7.21444016115137
0.0,-0.0,0.0,0.0,0.0,0.0,Orzens,46.7245859778026,6.6825466532729
0.0,0.0,0.0,0.0,0.0,0.0,Ossingen,47.6113329704236,8.72608844943735
3.0,2.0,4.0,3.0,2.0,3.0,Ostermundigen,46.9564706137406,7.48592719061814
0.0,1.0,0.0,0.0,0.0,0.0,Otelfingen,47.46169546602,8.38689813239169
1.0,1.0,1.0,1.0,1.0,1.0,Othmarsingen,47.4009056003041,8.21624291132734
0.0,0.0,0.0,0.0,0.0,0.0,Ottenbach,47.2816591616505,8.40352896923856
0.0,0.0,0.0,0.0,0.0,0.0,Oulens-sous-Echallens,46.6419692520446,6.5765996310288
0.0,-0.0,0.0,0.0,0.0,0.0,Pailly,46.7011464877149,6.67503011422786
1.0,0.0,1.0,1.0,1.0,1.0,Paradiso,45.9910847005742,8.94479809530176
0.0,1.0,0.0,1.0,1.0,1.0,Paudex,46.5058995054232,6.66997041875978
2.0,2.0,1.0,2.0,1.0,2.0,Payerne,46.8213436615914,6.93673078390841
0.0,1.0,0.0,1.0,1.0,1.0,Penthalaz,46.6136978828859,6.52744249368378
0.0,0.0,0.0,0.0,0.0,0.0,Penthaz,46.6002886850055,6.53811021226769
0.0,-0.0,0.0,0.0,0.0,0.0,Penthéréaz,46.6817518924614,6.60341313437686
0.0,0.0,0.0,1.0,1.0,0.0,Perly-Certoux,46.1568001627822,6.08975023104715
0.0,-0.0,0.0,0.0,0.0,0.0,Perrefitte,47.2748569751283,7.34215118156512
0.0,1.0,0.0,0.0,0.0,0.0,Perroy,46.467445003674,6.36585442956907
0.0,0.0,0.0,0.0,0.0,0.0,Personico,46.3693270571037,8.91759702530665
0.0,0.0,0.0,0.0,0.0,0.0,Péry-La Heutte,47.1937902913517,7.24992839918455
0.0,-0.0,0.0,0.0,0.0,0.0,Petit-Val,47.2738311068509,7.2430361411619
0.0,0.0,0.0,0.0,0.0,0.0,Pfäfers,46.9892033636196,9.50139143140744
2.0,1.0,1.0,2.0,2.0,2.0,Pfäffikon,47.3650939874643,8.78501698387062
0.0,0.0,0.0,0.0,0.0,0.0,Pfaffnau,47.2290118356145,7.89814603585408
0.0,0.0,0.0,0.0,0.0,0.0,Pfeffingen,47.4591849308854,7.58847995600563
2.0,1.0,1.0,1.0,1.0,1.0,Pfungen,47.5151120018553,8.64011091122961
0.0,0.0,0.0,0.0,0.0,0.0,Pfyn,47.5959805615001,8.95444077467158
0.0,-0.0,0.0,0.0,0.0,0.0,Pierrafortscha,46.7870867406767,7.18587992288081
0.0,1.0,1.0,1.0,1.0,1.0,Pieterlen,47.1750119688323,7.33705667772957
1.0,0.0,0.0,1.0,1.0,0.0,Plaffeien,46.7404920074018,7.28816101001927
3.0,2.0,3.0,3.0,1.0,2.0,Plan-les-Ouates,46.1688298763251,6.117940706988
0.0,0.0,0.0,0.0,0.0,0.0,Plasselb,46.7332432938529,7.25285709227519
0.0,0.0,0.0,0.0,0.0,0.0,Plateau de Diesse,47.0990848697794,7.13039416431165
0.0,-0.0,0.0,0.0,0.0,0.0,Pleigne,47.4070185778897,7.29023951223248
0.0,-0.0,0.0,0.0,0.0,0.0,Pohlern,46.7234563255467,7.54066572028548
0.0,0.0,0.0,0.0,0.0,0.0,Poliez-Pittet,46.627421734676,6.68129692875363
0.0,1.0,0.0,0.0,0.0,0.0,Pollegio,46.3644879287666,8.94345827322326
0.0,0.0,0.0,0.0,0.0,0.0,Pompaples,46.6666411386648,6.51086638888742
0.0,-0.0,0.0,0.0,0.0,0.0,Pomy,46.7595788879579,6.66896492295642
0.0,0.0,0.0,0.0,0.0,0.0,Pont-en-Ogoz,46.6869696520272,7.08569696371417
0.0,0.0,0.0,0.0,0.0,0.0,Pont-la-Ville,46.7005371926998,7.11045087716881
0.0,0.0,0.0,0.0,0.0,0.0,Ponte Capriasca,46.0620840303769,8.95063399401151
0.0,-0.0,0.0,0.0,0.0,0.0,Ponthaux,46.8154558918953,7.04030139166959
0.0,0.0,0.0,1.0,0.0,0.0,Pontresina,46.4916424622177,9.90461884036007
2.0,2.0,2.0,2.0,2.0,2.0,Porrentruy,47.4164432789692,7.07819605142942
1.0,1.0,0.0,1.0,0.0,0.0,Port,47.1164438319093,7.25547316294934
1.0,1.0,0.0,0.0,0.0,0.0,Port-Valais,46.3828464554506,6.85240251630001
0.0,1.0,0.0,1.0,1.0,1.0,Porza,46.0278554166272,8.95356170130667
0.0,0.0,1.0,1.0,0.0,0.0,Poschiavo,46.3252909145187,10.0581638754387
0.0,1.0,0.0,0.0,1.0,0.0,Prangins,46.3943054064587,6.24897803162576
0.0,0.0,0.0,0.0,0.0,0.0,Prato (Leventina),46.4828605335132,8.75788780883666
4.0,3.0,3.0,3.0,2.0,3.0,Pratteln,47.5210573435834,7.69487046614575
0.0,2.0,0.0,1.0,1.0,1.0,Pregny-Chambésy,46.2419994652542,6.1433929096287
0.0,-0.0,0.0,0.0,0.0,0.0,Premier,46.7047672403789,6.44482434563435
0.0,-0.0,0.0,0.0,0.0,0.0,Presinge,46.2180793091294,6.25931401442601
1.0,1.0,0.0,1.0,1.0,1.0,Préverenges,46.5174412321581,6.52776157889223
0.0,-0.0,0.0,0.0,0.0,0.0,Prévondavaux,46.7297824167878,6.79629335382391
0.0,-0.0,0.0,0.0,0.0,0.0,Prévonloup,46.6996402366299,6.8803345765876
0.0,-0.0,0.0,0.0,0.0,0.0,Prez,46.7856818250459,7.01563982338917
9.0,1.0,3.0,3.0,2.0,2.0,Prilly,46.5351327060396,6.60567909545969
0.0,-0.0,0.0,0.0,0.0,0.0,Provence,46.8903887232453,6.72613790404246
